{
  "dataset":[
     {
        "parcelno":"18010018.",
        "propaddr":"2334 STAIR",
        "latitude":42.3141419577,
        "longitude":-83.1221815483
     },
     {
        "parcelno":"20008998-9000",
        "propaddr":"4393 TERNES",
        "latitude":42.3264552405,
        "longitude":-83.1393261766
     },
     {
        "parcelno":"20009016.",
        "propaddr":"4336 ST LAWRENCE",
        "latitude":42.3256710786,
        "longitude":-83.1393071723
     },
     {
        "parcelno":"20008923.",
        "propaddr":"4446 TERNES",
        "latitude":42.3273841985,
        "longitude":-83.1392925183
     },
     {
        "parcelno":"20004138.",
        "propaddr":"8368 WHITTAKER",
        "latitude":42.3094616134,
        "longitude":-83.1305198632
     },
     {
        "parcelno":"20004145.",
        "propaddr":"8324 WHITTAKER",
        "latitude":42.3097396387,
        "longitude":-83.1298401031
     },
     {
        "parcelno":"20008427.",
        "propaddr":"1688 WOODMERE",
        "latitude":42.303188309,
        "longitude":-83.1357187978
     },
     {
        "parcelno":"20003615.",
        "propaddr":"9203 MASON PL",
        "latitude":42.3038331747,
        "longitude":-83.1358411544
     },
     {
        "parcelno":"16037328.",
        "propaddr":"13638 WYOMING",
        "latitude":42.3882436061,
        "longitude":-83.1587434077
     },
     {
        "parcelno":"02002694.",
        "propaddr":"17437 THIRD",
        "latitude":42.4191058989,
        "longitude":-83.1140898962
     },
     {
        "parcelno":"16044386.",
        "propaddr":"14175 PINEHURST",
        "latitude":42.3912919619,
        "longitude":-83.1659743609
     },
     {
        "parcelno":"16042635.",
        "propaddr":"14015 BIRWOOD",
        "latitude":42.3900731663,
        "longitude":-83.1636099379
     },
     {
        "parcelno":"16041920.",
        "propaddr":"14160 BIRWOOD",
        "latitude":42.3911744571,
        "longitude":-83.1627462107
     },
     {
        "parcelno":"22028956.",
        "propaddr":"20023 HARTWELL",
        "latitude":42.4401510838,
        "longitude":-83.1800302007
     },
     {
        "parcelno":"22027045.",
        "propaddr":"20154 LITTLEFIELD",
        "latitude":42.4414319922,
        "longitude":-83.1772677897
     },
     {
        "parcelno":"22027044.",
        "propaddr":"20144 LITTLEFIELD",
        "latitude":42.4412921627,
        "longitude":-83.177262466
     },
     {
        "parcelno":"22027043.",
        "propaddr":"20134 LITTLEFIELD",
        "latitude":42.4411523397,
        "longitude":-83.1772577564
     },
     {
        "parcelno":"22024787.",
        "propaddr":"14884 WARD",
        "latitude":42.3988861523,
        "longitude":-83.1731863197
     },
     {
        "parcelno":"22003155-8",
        "propaddr":"14420 JOY RD",
        "latitude":42.3586879979,
        "longitude":-83.1852699691
     },
     {
        "parcelno":"22038550.",
        "propaddr":"12111 STRATHMOOR",
        "latitude":42.3766293905,
        "longitude":-83.1870477073
     },
     {
        "parcelno":"22038551-2",
        "propaddr":"12101 STRATHMOOR",
        "latitude":42.3765277993,
        "longitude":-83.1870437548
     },
     {
        "parcelno":"22038553-5",
        "propaddr":"11725 STRATHMOOR",
        "latitude":42.3747943506,
        "longitude":-83.1869608858
     },
     {
        "parcelno":"22038556.",
        "propaddr":"11715 STRATHMOOR",
        "latitude":42.3745750372,
        "longitude":-83.1869514172
     },
     {
        "parcelno":"22034002.",
        "propaddr":"14861 STANSBURY",
        "latitude":42.3981152592,
        "longitude":-83.1824417981
     },
     {
        "parcelno":"22034003.",
        "propaddr":"14855 STANSBURY",
        "latitude":42.3980191483,
        "longitude":-83.18243748
     },
     {
        "parcelno":"22041680.",
        "propaddr":"9416 LAUDER",
        "latitude":42.3649582982,
        "longitude":-83.1893307074
     },
     {
        "parcelno":"22016332-5",
        "propaddr":"17825 W SEVEN MILE",
        "latitude":42.42973323,
        "longitude":-83.2186718031
     },
     {
        "parcelno":"22076384.",
        "propaddr":"13992 ROSEMONT",
        "latitude":42.3880248012,
        "longitude":-83.2195371993
     },
     {
        "parcelno":"22076383.",
        "propaddr":"13984 ROSEMONT",
        "latitude":42.3879151584,
        "longitude":-83.2195317553
     },
     {
        "parcelno":"22013282.",
        "propaddr":"19725 W MCNICHOLS",
        "latitude":42.4149105307,
        "longitude":-83.2361754811
     },
     {
        "parcelno":"22106321.001",
        "propaddr":"12110 PIERSON",
        "latitude":42.3756213762,
        "longitude":-83.2447070755
     },
     {
        "parcelno":"22107466-7",
        "propaddr":"12808 BURT RD",
        "latitude":42.3816434583,
        "longitude":-83.2461172284
     },
     {
        "parcelno":"22107517-8",
        "propaddr":"13554 BURT RD",
        "latitude":42.3845938007,
        "longitude":-83.246197169
     },
     {
        "parcelno":"06001052-3",
        "propaddr":"1250 M REEVES DR",
        "latitude":42.3467018529,
        "longitude":-83.070967603
     },
     {
        "parcelno":"22006607-8",
        "propaddr":"22501 FULLERTON",
        "latitude":42.379176571,
        "longitude":-83.2624070202
     },
     {
        "parcelno":"22116880.012",
        "propaddr":"12800 CHATHAM",
        "latitude":42.3818143036,
        "longitude":-83.2623151203
     },
     {
        "parcelno":"22008512.",
        "propaddr":"22333 GLENDALE",
        "latitude":42.3802254411,
        "longitude":-83.2621808817
     },
     {
        "parcelno":"22125966.",
        "propaddr":"13160 W OUTER DRIVE",
        "latitude":42.3794895383,
        "longitude":-83.2618508149
     },
     {
        "parcelno":"22013368.",
        "propaddr":"22445 W MCNICHOLS",
        "latitude":42.4144228572,
        "longitude":-83.263333411
     },
     {
        "parcelno":"22116645.",
        "propaddr":"17300 MCINTYRE",
        "latitude":42.4170033351,
        "longitude":-83.2646878116
     },
     {
        "parcelno":"22121681.002L",
        "propaddr":"19668 APPLETON",
        "latitude":42.4343033998,
        "longitude":-83.2738268757
     },
     {
        "parcelno":"22123621.",
        "propaddr":"16148 FENTON",
        "latitude":42.4079269936,
        "longitude":-83.2816678862
     },
     {
        "parcelno":"22120929.001",
        "propaddr":"16943 W RIVERDALE DR",
        "latitude":42.4133080097,
        "longitude":-83.2733251767
     },
     {
        "parcelno":"22013390.",
        "propaddr":"22861 W MCNICHOLS",
        "latitude":42.4142138917,
        "longitude":-83.2692531079
     },
     {
        "parcelno":"22013395-6",
        "propaddr":"23439 W MCNICHOLS",
        "latitude":42.4142725829,
        "longitude":-83.2707428953
     },
     {
        "parcelno":"22120917-22",
        "propaddr":"16140 W RIVERDALE DR",
        "latitude":42.408827823,
        "longitude":-83.2701579896
     },
     {
        "parcelno":"22120924.",
        "propaddr":"16560 W RIVERDALE DR",
        "latitude":42.4108459327,
        "longitude":-83.2702740083
     },
     {
        "parcelno":"22013392.",
        "propaddr":"23405 W MCNICHOLS",
        "latitude":42.4143259215,
        "longitude":-83.270152349
     },
     {
        "parcelno":"22120923.",
        "propaddr":"16540 W RIVERDALE DR",
        "latitude":42.4102357852,
        "longitude":-83.2700764387
     },
     {
        "parcelno":"22120136.",
        "propaddr":"16607 HAZELTON",
        "latitude":42.4115017349,
        "longitude":-83.2691672495
     },
     {
        "parcelno":"22123207.",
        "propaddr":"18403 WORMER",
        "latitude":42.4235868729,
        "longitude":-83.2804052248
     },
     {
        "parcelno":"22011926-7",
        "propaddr":"23202 SUNNYSIDE",
        "latitude":42.4071890028,
        "longitude":-83.2672442531
     },
     {
        "parcelno":"22124268.002L",
        "propaddr":"16824 SALEM",
        "latitude":42.4122364535,
        "longitude":-83.2846515559
     },
     {
        "parcelno":"22123125.",
        "propaddr":"17680 WORMER",
        "latitude":42.4204795432,
        "longitude":-83.279760365
     },
     {
        "parcelno":"01003945.",
        "propaddr":"1475 RANDOLPH",
        "latitude":42.3362365516,
        "longitude":-83.0461873162
     },
     {
        "parcelno":"11002862-3",
        "propaddr":"203 JOSEPH CAMPAU",
        "latitude":42.3364646272,
        "longitude":-83.0180948317
     },
     {
        "parcelno":"11000697.003",
        "propaddr":"1811 CAMPAU FARMS CIRCLE",
        "latitude":42.3469550503,
        "longitude":-83.0239207923
     },
     {
        "parcelno":"11000678.003",
        "propaddr":"1724 CAMPAU FARMS CIRCLE",
        "latitude":42.3463109628,
        "longitude":-83.0239494828
     },
     {
        "parcelno":"11000688.003L",
        "propaddr":"1634 CAMPAU FARMS CIRCLE",
        "latitude":42.3457983136,
        "longitude":-83.0236178168
     },
     {
        "parcelno":"13000115.016",
        "propaddr":"329 E CRESCENT LANE 16",
        "latitude":42.3413841492,
        "longitude":-83.0125234877
     },
     {
        "parcelno":"13000119.051L",
        "propaddr":"3320 SPINNAKER LANE 101/1",
        "latitude":42.3401129099,
        "longitude":-83.0124784447
     },
     {
        "parcelno":"13000115.053",
        "propaddr":"3305 JIB LANE 53",
        "latitude":42.3403398665,
        "longitude":-83.0125360065
     },
     {
        "parcelno":"13000115.015",
        "propaddr":"333 E CRESCENT LANE 15",
        "latitude":42.3414185599,
        "longitude":-83.0124947057
     },
     {
        "parcelno":"13000115.014",
        "propaddr":"337 E CRESCENT LANE 14",
        "latitude":42.3414571473,
        "longitude":-83.0124766916
     },
     {
        "parcelno":"13000115.023",
        "propaddr":"290 MAINSAIL COURT 23",
        "latitude":42.3410191221,
        "longitude":-83.0124618138
     },
     {
        "parcelno":"13000115.024",
        "propaddr":"286 MAINSAIL COURT 24",
        "latitude":42.3410114897,
        "longitude":-83.0123721699
     },
     {
        "parcelno":"13000115.013",
        "propaddr":"341 E CRESCENT LANE 13",
        "latitude":42.3414943918,
        "longitude":-83.012456262
     },
     {
        "parcelno":"13000115.052",
        "propaddr":"3338 SPINNAKER LANE 52",
        "latitude":42.3402663459,
        "longitude":-83.012485259
     },
     {
        "parcelno":"13000117.020",
        "propaddr":"211 WINDWARD CT 20",
        "latitude":42.3409387034,
        "longitude":-83.0108360754
     },
     {
        "parcelno":"13000116.007",
        "propaddr":"250 E HARBORTOWN DR 4/202",
        "latitude":42.3420561237,
        "longitude":-83.0108713735
     },
     {
        "parcelno":"15013443.",
        "propaddr":"515 JEFFERSON CT",
        "latitude":42.3459731515,
        "longitude":-83.0092189722
     },
     {
        "parcelno":"15013460.",
        "propaddr":"462 MELDRUM",
        "latitude":42.3452480994,
        "longitude":-83.0090804027
     },
     {
        "parcelno":"15011761.",
        "propaddr":"1185 CONCORD",
        "latitude":42.3512665198,
        "longitude":-83.0090207318
     },
     {
        "parcelno":"10003439.",
        "propaddr":"2522 MONTEREY",
        "latitude":42.3858234469,
        "longitude":-83.1156099763
     },
     {
        "parcelno":"10003351.",
        "propaddr":"2546 ELMHURST",
        "latitude":42.3850089693,
        "longitude":-83.1155456428
     },
     {
        "parcelno":"10003551.",
        "propaddr":"2483 CORTLAND",
        "latitude":42.3870555631,
        "longitude":-83.1155371906
     },
     {
        "parcelno":"10007462.",
        "propaddr":"11810 LINWOOD",
        "latitude":42.3840014138,
        "longitude":-83.115525266
     },
     {
        "parcelno":"17000013.087",
        "propaddr":"8120 E JEFFERSON 87/7B",
        "latitude":42.349984125,
        "longitude":-82.9918068277
     },
     {
        "parcelno":"17016515.",
        "propaddr":"20126 VEACH",
        "latitude":42.4441662755,
        "longitude":-83.0210616226
     },
     {
        "parcelno":"02000901-4",
        "propaddr":"66 W CANFIELD",
        "latitude":42.3523039606,
        "longitude":-83.0632738566
     },
     {
        "parcelno":"02004082.002L",
        "propaddr":"20470 WARRINGTON",
        "latitude":42.444840306,
        "longitude":-83.140589205
     },
     {
        "parcelno":"02005866.",
        "propaddr":"20235 PICADILLY",
        "latitude":42.443532181,
        "longitude":-83.1379204048
     },
     {
        "parcelno":"02004147.001",
        "propaddr":"19765 WARRINGTON",
        "latitude":42.4380339111,
        "longitude":-83.1408802004
     },
     {
        "parcelno":"21045689.034",
        "propaddr":"138 CLAIRPOINTE 34",
        "latitude":42.3573213152,
        "longitude":-82.9525780149
     },
     {
        "parcelno":"04001420.",
        "propaddr":"831 W MILWAUKEE",
        "latitude":42.3665009587,
        "longitude":-83.0787907304
     },
     {
        "parcelno":"02004665.",
        "propaddr":"19160 WOODSTON",
        "latitude":42.4328182747,
        "longitude":-83.128847614
     },
     {
        "parcelno":"16037276.",
        "propaddr":"12676 WYOMING",
        "latitude":42.3818946228,
        "longitude":-83.158556402
     },
     {
        "parcelno":"22059288.",
        "propaddr":"11691 ST MARYS",
        "latitude":42.3738573744,
        "longitude":-83.2051782218
     },
     {
        "parcelno":"22003964-76",
        "propaddr":"20611 CHICAGO",
        "latitude":42.3643299868,
        "longitude":-83.2428100723
     },
     {
        "parcelno":"22014216.",
        "propaddr":"22580 ARGUS",
        "latitude":42.4162905941,
        "longitude":-83.2642668175
     },
     {
        "parcelno":"01004460-1",
        "propaddr":"1221 E MCNICHOLS",
        "latitude":42.4189794065,
        "longitude":-83.0908437011
     },
     {
        "parcelno":"21008462.",
        "propaddr":"11838 WILSHIRE",
        "latitude":42.4059412846,
        "longitude":-82.989596782
     },
     {
        "parcelno":"16018356.",
        "propaddr":"11425 DALRYMPLE",
        "latitude":42.3735551933,
        "longitude":-83.1366229584
     },
     {
        "parcelno":"16010208.",
        "propaddr":"224 MORRELL",
        "latitude":42.3092918537,
        "longitude":-83.0937865386
     },
     {
        "parcelno":"16017031.",
        "propaddr":"2040 LIVERNOIS",
        "latitude":42.3163493928,
        "longitude":-83.1088392057
     },
     {
        "parcelno":"16000818.",
        "propaddr":"5899 NEWBERRY",
        "latitude":42.3168884612,
        "longitude":-83.1059405261
     },
     {
        "parcelno":"16016434.",
        "propaddr":"1321 MILITARY",
        "latitude":42.3128185162,
        "longitude":-83.1051587433
     },
     {
        "parcelno":"16015089.",
        "propaddr":"1600 CAVALRY",
        "latitude":42.3149026641,
        "longitude":-83.1042973249
     },
     {
        "parcelno":"16000840.002L",
        "propaddr":"5631 MCMILLAN",
        "latitude":42.318893208,
        "longitude":-83.1033979989
     },
     {
        "parcelno":"16017113.",
        "propaddr":"6240 OTIS",
        "latitude":42.3264863515,
        "longitude":-83.1165105492
     },
     {
        "parcelno":"16001665.",
        "propaddr":"5901 MICHIGAN AVE",
        "latitude":42.3309100574,
        "longitude":-83.1156860374
     },
     {
        "parcelno":"18010428.",
        "propaddr":"3884 CICOTTE",
        "latitude":42.3291423887,
        "longitude":-83.1218133641
     },
     {
        "parcelno":"16014677.",
        "propaddr":"4107 CAMPBELL",
        "latitude":42.3332494258,
        "longitude":-83.1159596676
     },
     {
        "parcelno":"18002583.",
        "propaddr":"6415 PELOUZE",
        "latitude":42.3342390803,
        "longitude":-83.1247751084
     },
     {
        "parcelno":"16013679.",
        "propaddr":"4664 35TH ST",
        "latitude":42.3371942835,
        "longitude":-83.1169234693
     },
     {
        "parcelno":"16013529.",
        "propaddr":"5606 MILFORD",
        "latitude":42.3486121308,
        "longitude":-83.1250074175
     },
     {
        "parcelno":"18004341.",
        "propaddr":"6770 FLOYD",
        "latitude":42.3462364753,
        "longitude":-83.1391615302
     },
     {
        "parcelno":"16013554.",
        "propaddr":"5959 HAZLETT",
        "latitude":42.3464573541,
        "longitude":-83.123479356
     },
     {
        "parcelno":"16017268.",
        "propaddr":"8010 LIVERNOIS",
        "latitude":42.3524585578,
        "longitude":-83.1355129559
     },
     {
        "parcelno":"16002110-6",
        "propaddr":"6200 TIREMAN",
        "latitude":42.3522935995,
        "longitude":-83.1342155729
     },
     {
        "parcelno":"16012686.",
        "propaddr":"6485 NORTHFIELD",
        "latitude":42.351244241,
        "longitude":-83.1255756441
     },
     {
        "parcelno":"16013971.",
        "propaddr":"8843 COLFAX",
        "latitude":42.3599591024,
        "longitude":-83.1342729813
     },
     {
        "parcelno":"16004595.",
        "propaddr":"5535 JOY RD",
        "latitude":42.3613879158,
        "longitude":-83.1333065563
     },
     {
        "parcelno":"16003345.",
        "propaddr":"5503 LINSDALE",
        "latitude":42.3586548079,
        "longitude":-83.1306371223
     },
     {
        "parcelno":"18004751.",
        "propaddr":"6662 BELFAST",
        "latitude":42.3514905563,
        "longitude":-83.1395459521
     },
     {
        "parcelno":"02001558.",
        "propaddr":"112 CALVERT",
        "latitude":42.3889019787,
        "longitude":-83.0883638666
     },
     {
        "parcelno":"18004728.",
        "propaddr":"6403 BELFAST",
        "latitude":42.3510659123,
        "longitude":-83.1371171397
     },
     {
        "parcelno":"18003849.",
        "propaddr":"7003 SARENA",
        "latitude":42.3435228931,
        "longitude":-83.1399595228
     },
     {
        "parcelno":"18003243-4",
        "propaddr":"7015 WAGNER",
        "latitude":42.339239707,
        "longitude":-83.1370379069
     },
     {
        "parcelno":"18011073-4",
        "propaddr":"6064 MARTIN",
        "latitude":42.3426730645,
        "longitude":-83.1356784965
     },
     {
        "parcelno":"18012653.",
        "propaddr":"5456 PROCTOR",
        "latitude":42.3354502085,
        "longitude":-83.1384165185
     },
     {
        "parcelno":"18012548.",
        "propaddr":"5527 TARNOW",
        "latitude":42.3360313883,
        "longitude":-83.138357076
     },
     {
        "parcelno":"18012400.",
        "propaddr":"5514 TARNOW",
        "latitude":42.3360756742,
        "longitude":-83.1377758312
     },
     {
        "parcelno":"18003225.",
        "propaddr":"6593 WAGNER",
        "latitude":42.3405592374,
        "longitude":-83.1324479843
     },
     {
        "parcelno":"18003675.",
        "propaddr":"6357 BEECHTON",
        "latitude":42.3454988516,
        "longitude":-83.1322375504
     },
     {
        "parcelno":"18010853.",
        "propaddr":"5525 DANIELS",
        "latitude":42.3387204002,
        "longitude":-83.1320602203
     },
     {
        "parcelno":"18002528-9",
        "propaddr":"6629 FERN",
        "latitude":42.3326015433,
        "longitude":-83.1261819829
     },
     {
        "parcelno":"18010506.",
        "propaddr":"4085 CICOTTE",
        "latitude":42.3304781745,
        "longitude":-83.1236778836
     },
     {
        "parcelno":"",
        "propaddr":"",
        "latitude":42.3242996972,
        "longitude":-83.1190611575
     },
     {
        "parcelno":"18008007.",
        "propaddr":"1273 CASGRAIN",
        "latitude":42.3101382746,
        "longitude":-83.1098233014
     },
     {
        "parcelno":"",
        "propaddr":"",
        "latitude":42.2965425114,
        "longitude":-83.1072143528
     },
     {
        "parcelno":"18007528.",
        "propaddr":"661 REID",
        "latitude":42.2995784885,
        "longitude":-83.1016544082
     },
     {
        "parcelno":"18007578-81",
        "propaddr":"738 REID",
        "latitude":42.2986536226,
        "longitude":-83.1014335445
     },
     {
        "parcelno":"02002615.",
        "propaddr":"381 COVINGTON",
        "latitude":42.419747889,
        "longitude":-83.1093208708
     },
     {
        "parcelno":"01004941.",
        "propaddr":"168 W LONGWOOD",
        "latitude":42.4220253391,
        "longitude":-83.1052388363
     },
     {
        "parcelno":"01004400-2",
        "propaddr":"10 W MCNICHOLS",
        "latitude":42.4180452405,
        "longitude":-83.1022218113
     },
     {
        "parcelno":"18009523.",
        "propaddr":"651 CROSSLEY",
        "latitude":42.2956145836,
        "longitude":-83.1112502685
     },
     {
        "parcelno":"20002318.",
        "propaddr":"8089 CHAMBERLAIN",
        "latitude":42.3030336271,
        "longitude":-83.1226890556
     },
     {
        "parcelno":"20002314.",
        "propaddr":"7936 W LAFAYETTE",
        "latitude":42.3029138134,
        "longitude":-83.1215445866
     },
     {
        "parcelno":"20002020-4",
        "propaddr":"7942 W FISHER",
        "latitude":42.3017330418,
        "longitude":-83.1203051784
     },
     {
        "parcelno":"20001745-6",
        "propaddr":"7900 W FORT",
        "latitude":42.3006336852,
        "longitude":-83.1189028432
     },
     {
        "parcelno":"20001748-9",
        "propaddr":"7750 W FORT",
        "latitude":42.3011389001,
        "longitude":-83.1176377267
     },
     {
        "parcelno":"18009386-7",
        "propaddr":"800 SOLVAY",
        "latitude":42.3023269553,
        "longitude":-83.1154802071
     },
     {
        "parcelno":"20004001.",
        "propaddr":"8135 SENATOR",
        "latitude":42.3090012758,
        "longitude":-83.1284674708
     },
     {
        "parcelno":"20004097.",
        "propaddr":"8025 WHITTAKER",
        "latitude":42.3103790712,
        "longitude":-83.1271468164
     },
     {
        "parcelno":"20004095.",
        "propaddr":"7833 WHITTAKER",
        "latitude":42.310860054,
        "longitude":-83.1259696937
     },
     {
        "parcelno":"20003945.",
        "propaddr":"7838 NAVY",
        "latitude":42.3098820291,
        "longitude":-83.1253892925
     },
     {
        "parcelno":"18009715.",
        "propaddr":"2936 CENTRAL",
        "latitude":42.3190553326,
        "longitude":-83.1284271956
     },
     {
        "parcelno":"18000872.",
        "propaddr":"7327 LOGAN",
        "latitude":42.3081243496,
        "longitude":-83.1199631214
     },
     {
        "parcelno":"20004314.002L",
        "propaddr":"7940 W VERNOR",
        "latitude":42.3116041547,
        "longitude":-83.1273995281
     },
     {
        "parcelno":"18001396.001",
        "propaddr":"7633 W VERNOR",
        "latitude":42.3126668055,
        "longitude":-83.1235401163
     },
     {
        "parcelno":"18001252.",
        "propaddr":"7292 WHITTAKER",
        "latitude":42.3127041774,
        "longitude":-83.1225563313
     },
     {
        "parcelno":"20009017.",
        "propaddr":"4344 ST LAWRENCE",
        "latitude":42.3257689097,
        "longitude":-83.1393784374
     },
     {
        "parcelno":"20008728.",
        "propaddr":"4627 LUMLEY",
        "latitude":42.3282663424,
        "longitude":-83.139375754
     },
     {
        "parcelno":"20008924.",
        "propaddr":"4456 TERNES",
        "latitude":42.3274686337,
        "longitude":-83.1393546946
     },
     {
        "parcelno":"18002223.",
        "propaddr":"7411 ST JOHN",
        "latitude":42.327115936,
        "longitude":-83.1335349624
     },
     {
        "parcelno":"20008691-9",
        "propaddr":"5187 LUMLEY",
        "latitude":42.3322129767,
        "longitude":-83.142160036
     },
     {
        "parcelno":"20008577.",
        "propaddr":"5200 LUMLEY",
        "latitude":42.3325580205,
        "longitude":-83.1418085889
     },
     {
        "parcelno":"20006933.",
        "propaddr":"5439 CASPER",
        "latitude":42.3340769292,
        "longitude":-83.141142927
     },
     {
        "parcelno":"20004844.",
        "propaddr":"5051 CENTRAL",
        "latitude":42.3329845702,
        "longitude":-83.139152878
     },
     {
        "parcelno":"18002382-3",
        "propaddr":"7540 MICHIGAN AVE",
        "latitude":42.331345679,
        "longitude":-83.1365764027
     },
     {
        "parcelno":"18004104.",
        "propaddr":"7703 HOLMES",
        "latitude":42.3436867518,
        "longitude":-83.1459045865
     },
     {
        "parcelno":"18012990.",
        "propaddr":"6161 FLORIDA",
        "latitude":42.3414833483,
        "longitude":-83.1444357643
     },
     {
        "parcelno":"20009609.",
        "propaddr":"7701 SMART",
        "latitude":42.339635487,
        "longitude":-83.1441322139
     },
     {
        "parcelno":"18004046.",
        "propaddr":"7386 WHEELER",
        "latitude":42.3434232787,
        "longitude":-83.1433718253
     },
     {
        "parcelno":"18003946.",
        "propaddr":"7310 SARENA",
        "latitude":42.3431096792,
        "longitude":-83.1420329658
     },
     {
        "parcelno":"20009312.",
        "propaddr":"5742 LONYO",
        "latitude":42.3348026523,
        "longitude":-83.1470984696
     },
     {
        "parcelno":"20009311.",
        "propaddr":"5734 LONYO",
        "latitude":42.3347181945,
        "longitude":-83.1470366964
     },
     {
        "parcelno":"18003959.",
        "propaddr":"6950 SARENA",
        "latitude":42.3439204667,
        "longitude":-83.1399590017
     },
     {
        "parcelno":"18012405.",
        "propaddr":"7336 MCGRAW",
        "latitude":42.3367546717,
        "longitude":-83.1382527938
     },
     {
        "parcelno":"18003578.",
        "propaddr":"7700 W WARREN",
        "latitude":42.3449844175,
        "longitude":-83.1462215388
     },
     {
        "parcelno":"20009728.",
        "propaddr":"8408 SMART",
        "latitude":42.3371498314,
        "longitude":-83.1518876714
     },
     {
        "parcelno":"20009847.",
        "propaddr":"8385 DAYTON",
        "latitude":42.3375807624,
        "longitude":-83.1518175825
     },
     {
        "parcelno":"01006839.",
        "propaddr":"735 W BRENTWOOD",
        "latitude":42.4311407168,
        "longitude":-83.1135182934
     },
     {
        "parcelno":"20009340.",
        "propaddr":"6002 LONYO",
        "latitude":42.3372777517,
        "longitude":-83.1489916511
     },
     {
        "parcelno":"20011007.",
        "propaddr":"5681 HOMEDALE",
        "latitude":42.331807908,
        "longitude":-83.1534266561
     },
     {
        "parcelno":"20009675.",
        "propaddr":"8601 SMART",
        "latitude":42.3364559011,
        "longitude":-83.1523849623
     },
     {
        "parcelno":"20007873-5",
        "propaddr":"5720 CABOT",
        "latitude":42.333189757,
        "longitude":-83.1518159724
     },
     {
        "parcelno":"20010791.",
        "propaddr":"4434 WESTERN",
        "latitude":42.3284615186,
        "longitude":-83.1523988049
     },
     {
        "parcelno":"20006475.",
        "propaddr":"3877 LAWNDALE",
        "latitude":42.3214713215,
        "longitude":-83.1427110857
     },
     {
        "parcelno":"20007963.",
        "propaddr":"2435 CABOT",
        "latitude":42.3104559908,
        "longitude":-83.1350501269
     },
     {
        "parcelno":"20006488.",
        "propaddr":"2555 LAWNDALE",
        "latitude":42.3117610858,
        "longitude":-83.1348089226
     },
     {
        "parcelno":"20008082.",
        "propaddr":"2021 OAKDALE",
        "latitude":42.3076779783,
        "longitude":-83.1340428207
     },
     {
        "parcelno":"20006520.",
        "propaddr":"2139 LAWNDALE",
        "latitude":42.3083723576,
        "longitude":-83.1323157018
     },
     {
        "parcelno":"20004229.",
        "propaddr":"8497 W VERNOR",
        "latitude":42.3096646598,
        "longitude":-83.1309183493
     },
     {
        "parcelno":"20004295.",
        "propaddr":"8422 W VERNOR",
        "latitude":42.3102152903,
        "longitude":-83.1308370744
     },
     {
        "parcelno":"20007524.",
        "propaddr":"2345 PEARL",
        "latitude":42.310755562,
        "longitude":-83.1308394526
     },
     {
        "parcelno":"20007525.",
        "propaddr":"2337 PEARL",
        "latitude":42.3106830534,
        "longitude":-83.1307869058
     },
     {
        "parcelno":"20004228.",
        "propaddr":"8445 W VERNOR",
        "latitude":42.3097438989,
        "longitude":-83.1307239641
     },
     {
        "parcelno":"20004135.",
        "propaddr":"8384 WHITTAKER",
        "latitude":42.3093423074,
        "longitude":-83.1308108563
     },
     {
        "parcelno":"20007526.",
        "propaddr":"2333 PEARL",
        "latitude":42.3106102755,
        "longitude":-83.130734489
     },
     {
        "parcelno":"20003395.",
        "propaddr":"9130 LANE",
        "latitude":42.3040402684,
        "longitude":-83.1344833705
     },
     {
        "parcelno":"20007527.",
        "propaddr":"2327 PEARL",
        "latitude":42.310537768,
        "longitude":-83.1306817645
     },
     {
        "parcelno":"20004136.",
        "propaddr":"8378 WHITTAKER",
        "latitude":42.3093822332,
        "longitude":-83.1307140414
     },
     {
        "parcelno":"20004296.",
        "propaddr":"8408 W VERNOR",
        "latitude":42.310293779,
        "longitude":-83.1306037354
     },
     {
        "parcelno":"20004297.",
        "propaddr":"8400 W VERNOR",
        "latitude":42.3103646092,
        "longitude":-83.1304276247
     },
     {
        "parcelno":"20003266.",
        "propaddr":"9137 AVIS",
        "latitude":42.3032909167,
        "longitude":-83.1332201272
     },
     {
        "parcelno":"20003895.",
        "propaddr":"8403 NAVY",
        "latitude":42.30753811,
        "longitude":-83.1299369047
     },
     {
        "parcelno":"20001941.",
        "propaddr":"8849 WITT",
        "latitude":42.2981954709,
        "longitude":-83.1282075361
     },
     {
        "parcelno":"20002338.",
        "propaddr":"8199 CHAMBERLAIN",
        "latitude":42.3021864653,
        "longitude":-83.1246999412
     },
     {
        "parcelno":"20001259-78",
        "propaddr":"9283 HERKIMER",
        "latitude":42.2919090019,
        "longitude":-83.1277560605
     },
     {
        "parcelno":"20000650.",
        "propaddr":"9131 THADDEUS",
        "latitude":42.289339416,
        "longitude":-83.1256799693
     },
     {
        "parcelno":"20005624.002L",
        "propaddr":"8544 DEARBORN",
        "latitude":42.291717615,
        "longitude":-83.119701809
     },
     {
        "parcelno":"02004824.",
        "propaddr":"19365 CUMBERLAND",
        "latitude":42.4341655042,
        "longitude":-83.1216503264
     },
     {
        "parcelno":"02004781.",
        "propaddr":"19475 AFTON RD",
        "latitude":42.4357291919,
        "longitude":-83.1197560645
     },
     {
        "parcelno":"01007199-243",
        "propaddr":"938 PENROSE",
        "latitude":42.4341696064,
        "longitude":-83.1129072682
     },
     {
        "parcelno":"20016346-7",
        "propaddr":"445 LUTHER",
        "latitude":42.2906215074,
        "longitude":-83.1489285166
     },
     {
        "parcelno":"20016291.",
        "propaddr":"300 COLONIAL",
        "latitude":42.2911343357,
        "longitude":-83.1463459629
     },
     {
        "parcelno":"20016443.",
        "propaddr":"266 HEIDT",
        "latitude":42.2925785505,
        "longitude":-83.1468459826
     },
     {
        "parcelno":"20016379.",
        "propaddr":"292 LUTHER",
        "latitude":42.2919575444,
        "longitude":-83.1464632845
     },
     {
        "parcelno":"20005990.",
        "propaddr":"200 N FORMAN",
        "latitude":42.2922967585,
        "longitude":-83.1340435259
     },
     {
        "parcelno":"20016003-4",
        "propaddr":"236 BAYSIDE",
        "latitude":42.2897735711,
        "longitude":-83.1445851133
     },
     {
        "parcelno":"20001600.",
        "propaddr":"9453 W FORT",
        "latitude":42.2951438304,
        "longitude":-83.1315329576
     },
     {
        "parcelno":"02006110.",
        "propaddr":"2636 WOODSTOCK",
        "latitude":42.4456266911,
        "longitude":-83.1302532079
     },
     {
        "parcelno":"20018666.",
        "propaddr":"13039 VISGER",
        "latitude":42.2698106718,
        "longitude":-83.1650423013
     },
     {
        "parcelno":"20014733.",
        "propaddr":"2540 EDSEL",
        "latitude":42.2702970944,
        "longitude":-83.1591500395
     },
     {
        "parcelno":"20011644.",
        "propaddr":"2155 ETHEL",
        "latitude":42.2702562392,
        "longitude":-83.1498467571
     },
     {
        "parcelno":"16025159.",
        "propaddr":"8101 ALPINE",
        "latitude":42.3535960785,
        "longitude":-83.1474723831
     },
     {
        "parcelno":"16025019.",
        "propaddr":"8097 CENTRAL",
        "latitude":42.3533783573,
        "longitude":-83.1464034118
     },
     {
        "parcelno":"16024820.",
        "propaddr":"8025 BRYDEN",
        "latitude":42.3524366733,
        "longitude":-83.1452662531
     },
     {
        "parcelno":"16024809.",
        "propaddr":"8103 BRYDEN",
        "latitude":42.3536470567,
        "longitude":-83.1447791742
     },
     {
        "parcelno":"16002054-64",
        "propaddr":"7404 TIREMAN",
        "latitude":42.352219495,
        "longitude":-83.1433857987
     },
     {
        "parcelno":"16024949.",
        "propaddr":"9386 CENTRAL",
        "latitude":42.3650939998,
        "longitude":-83.1460694392
     },
     {
        "parcelno":"16024886.",
        "propaddr":"8826 CENTRAL",
        "latitude":42.3596471275,
        "longitude":-83.1458397919
     },
     {
        "parcelno":"16018267-8",
        "propaddr":"8503 LIVERNOIS",
        "latitude":42.3574586512,
        "longitude":-83.1387147379
     },
     {
        "parcelno":"16022244-5",
        "propaddr":"8896 BURNETTE",
        "latitude":42.3606709236,
        "longitude":-83.141470604
     },
     {
        "parcelno":"16022365.",
        "propaddr":"9399 BURNETTE",
        "latitude":42.3653373335,
        "longitude":-83.142283442
     },
     {
        "parcelno":"02004697.",
        "propaddr":"19169 N STRATHCONA",
        "latitude":42.4325288481,
        "longitude":-83.1304234949
     },
     {
        "parcelno":"02004883.",
        "propaddr":"19171 WOODSTON",
        "latitude":42.4330166592,
        "longitude":-83.1296523249
     },
     {
        "parcelno":"02004592.",
        "propaddr":"1645 LINCOLNSHIRE",
        "latitude":42.43274883,
        "longitude":-83.1235596953
     },
     {
        "parcelno":"16004692.",
        "propaddr":"5440 JOY RD",
        "latitude":42.3621512257,
        "longitude":-83.1332850547
     },
     {
        "parcelno":"16004797.",
        "propaddr":"7720 CHICAGO",
        "latitude":42.3668727582,
        "longitude":-83.1479140075
     },
     {
        "parcelno":"16019813.002L",
        "propaddr":"9535 STOEPEL",
        "latitude":42.3671841954,
        "longitude":-83.1404057665
     },
     {
        "parcelno":"16028968.",
        "propaddr":"11720 CLOVERDALE",
        "latitude":42.3751940991,
        "longitude":-83.1475857527
     },
     {
        "parcelno":"16005684.",
        "propaddr":"6342 TUXEDO",
        "latitude":42.3754999813,
        "longitude":-83.139969272
     },
     {
        "parcelno":"16024188.",
        "propaddr":"3294 EWALD CIRCLE",
        "latitude":42.3827043803,
        "longitude":-83.145511693
     },
     {
        "parcelno":"16018063.",
        "propaddr":"12845 LIVERNOIS",
        "latitude":42.3836430774,
        "longitude":-83.1397760715
     },
     {
        "parcelno":"16018064.",
        "propaddr":"12843 LIVERNOIS",
        "latitude":42.3835884205,
        "longitude":-83.1397740753
     },
     {
        "parcelno":"16018065.",
        "propaddr":"12841 LIVERNOIS",
        "latitude":42.3835335243,
        "longitude":-83.1397718411
     },
     {
        "parcelno":"16018066.",
        "propaddr":"12839 LIVERNOIS",
        "latitude":42.3834784161,
        "longitude":-83.1397684967
     },
     {
        "parcelno":"16018067.",
        "propaddr":"12837 LIVERNOIS",
        "latitude":42.3833688636,
        "longitude":-83.139764266
     },
     {
        "parcelno":"16018068-9",
        "propaddr":"12821 LIVERNOIS",
        "latitude":42.3832317637,
        "longitude":-83.139758977
     },
     {
        "parcelno":"16018070-6",
        "propaddr":"12801 LIVERNOIS",
        "latitude":42.3829848882,
        "longitude":-83.1397490909
     },
     {
        "parcelno":"16027340.",
        "propaddr":"13958 TURNER",
        "latitude":42.3896867107,
        "longitude":-83.1472589567
     },
     {
        "parcelno":"16027077-8",
        "propaddr":"14915 TULLER",
        "latitude":42.3997650382,
        "longitude":-83.1472487263
     },
     {
        "parcelno":"16026788.",
        "propaddr":"14874 TULLER",
        "latitude":42.3991541342,
        "longitude":-83.1465937231
     },
     {
        "parcelno":"16026748.",
        "propaddr":"14502 TULLER",
        "latitude":42.395502382,
        "longitude":-83.1464210914
     },
     {
        "parcelno":"16028328.",
        "propaddr":"15880 WOODINGHAM",
        "latitude":42.4086544357,
        "longitude":-83.1493962478
     },
     {
        "parcelno":"16007518.",
        "propaddr":"7747 PURITAN",
        "latitude":42.4095747585,
        "longitude":-83.1495432399
     },
     {
        "parcelno":"16027029.",
        "propaddr":"15819 TULLER",
        "latitude":42.4078188569,
        "longitude":-83.1477215377
     },
     {
        "parcelno":"16007497-502",
        "propaddr":"7575 PURITAN",
        "latitude":42.4096105992,
        "longitude":-83.1471487149
     },
     {
        "parcelno":"16026062.",
        "propaddr":"15801 SAN JUAN",
        "latitude":42.4076285402,
        "longitude":-83.1465593639
     },
     {
        "parcelno":"16007406.",
        "propaddr":"7423 PILGRIM",
        "latitude":42.4072972569,
        "longitude":-83.1452127987
     },
     {
        "parcelno":"16021804.",
        "propaddr":"15501 MONICA",
        "latitude":42.4059116783,
        "longitude":-83.1440854926
     },
     {
        "parcelno":"16007374.",
        "propaddr":"6345 PILGRIM",
        "latitude":42.4073278641,
        "longitude":-83.1413813519
     },
     {
        "parcelno":"16026269.",
        "propaddr":"17500 PENNINGTON",
        "latitude":42.4208665073,
        "longitude":-83.1473165345
     },
     {
        "parcelno":"16021701.",
        "propaddr":"17329 MONICA",
        "latitude":42.4193769494,
        "longitude":-83.1444681158
     },
     {
        "parcelno":"16027844.",
        "propaddr":"18601 SANTA BARBARA",
        "latitude":42.4279902911,
        "longitude":-83.149631797
     },
     {
        "parcelno":"02002878.",
        "propaddr":"18214 PARKSIDE",
        "latitude":42.4248240984,
        "longitude":-83.1316294243
     },
     {
        "parcelno":"02002877.",
        "propaddr":"18204 PARKSIDE",
        "latitude":42.4246870115,
        "longitude":-83.1316229525
     },
     {
        "parcelno":"02004536.",
        "propaddr":"3101 W SEVEN MILE",
        "latitude":42.4313628564,
        "longitude":-83.1315755724
     },
     {
        "parcelno":"02002828.",
        "propaddr":"18970 FAIRWAY DR",
        "latitude":42.4309304393,
        "longitude":-83.1311866773
     },
     {
        "parcelno":"02002827.",
        "propaddr":"18950 FAIRWAY DR",
        "latitude":42.4305874656,
        "longitude":-83.1311717958
     },
     {
        "parcelno":"02002826.",
        "propaddr":"18910 FAIRWAY DR",
        "latitude":42.4301756871,
        "longitude":-83.1311541161
     },
     {
        "parcelno":"02002825.",
        "propaddr":"18900 FAIRWAY DR",
        "latitude":42.4298326952,
        "longitude":-83.1311394215
     },
     {
        "parcelno":"02002824.",
        "propaddr":"18800 FAIRWAY DR",
        "latitude":42.4295584862,
        "longitude":-83.1311275743
     },
     {
        "parcelno":"16035769.",
        "propaddr":"19136 INDIANA",
        "latitude":42.43197807,
        "longitude":-83.1584798288
     },
     {
        "parcelno":"16037144.",
        "propaddr":"13587 KENTUCKY",
        "latitude":42.3873612109,
        "longitude":-83.158289131
     },
     {
        "parcelno":"16025680.",
        "propaddr":"19300 SAN JUAN",
        "latitude":42.4334441812,
        "longitude":-83.1466591483
     },
     {
        "parcelno":"16020444.",
        "propaddr":"19769 SANTA ROSA",
        "latitude":42.4379659354,
        "longitude":-83.1441606625
     },
     {
        "parcelno":"16020269-70",
        "propaddr":"19134 SANTA ROSA",
        "latitude":42.4321703702,
        "longitude":-83.1433440541
     },
     {
        "parcelno":"16028643.",
        "propaddr":"8020 CHIPPEWA",
        "latitude":42.4412713845,
        "longitude":-83.1512136563
     },
     {
        "parcelno":"16027742.",
        "propaddr":"20401 SANTA BARBARA",
        "latitude":42.4436252771,
        "longitude":-83.1496842631
     },
     {
        "parcelno":"16020416.",
        "propaddr":"20067 SANTA ROSA",
        "latitude":42.4411835838,
        "longitude":-83.1442777354
     },
     {
        "parcelno":"16037270.",
        "propaddr":"12626 WYOMING",
        "latitude":42.3812280765,
        "longitude":-83.1585340436
     },
     {
        "parcelno":"16036805.",
        "propaddr":"20103 KENTUCKY",
        "latitude":42.4410475946,
        "longitude":-83.1605318037
     },
     {
        "parcelno":"16037148.",
        "propaddr":"13559 KENTUCKY",
        "latitude":42.3869772684,
        "longitude":-83.1582787224
     },
     {
        "parcelno":"16033073.",
        "propaddr":"20517 CHERRYLAWN",
        "latitude":42.4452668206,
        "longitude":-83.1564469467
     },
     {
        "parcelno":"16032025.",
        "propaddr":"20102 NORTHLAWN",
        "latitude":42.4411840859,
        "longitude":-83.1542943329
     },
     {
        "parcelno":"16035891.",
        "propaddr":"19303 INDIANA",
        "latitude":42.4332885816,
        "longitude":-83.1591637924
     },
     {
        "parcelno":"16035892.",
        "propaddr":"19215 INDIANA",
        "latitude":42.4330129787,
        "longitude":-83.1591467716
     },
     {
        "parcelno":"16008773.",
        "propaddr":"8634 W SEVEN MILE",
        "latitude":42.4316795948,
        "longitude":-83.1574571978
     },
     {
        "parcelno":"16009013.",
        "propaddr":"3650 W OUTER DRIVE",
        "latitude":42.4353907899,
        "longitude":-83.1558240819
     },
     {
        "parcelno":"16008637-41",
        "propaddr":"8901 W SEVEN MILE",
        "latitude":42.4310522208,
        "longitude":-83.1604278318
     },
     {
        "parcelno":"16036871.",
        "propaddr":"18601 KENTUCKY",
        "latitude":42.4278930951,
        "longitude":-83.1600771796
     },
     {
        "parcelno":"16032155.",
        "propaddr":"18901 NORTHLAWN",
        "latitude":42.4297035254,
        "longitude":-83.1545565634
     },
     {
        "parcelno":"16031955.",
        "propaddr":"18600 NORTHLAWN",
        "latitude":42.4279388999,
        "longitude":-83.1537940314
     },
     {
        "parcelno":"16030430.",
        "propaddr":"18514 ROSELAWN",
        "latitude":42.4277016303,
        "longitude":-83.1525876513
     },
     {
        "parcelno":"16036604.",
        "propaddr":"17500 KENTUCKY",
        "latitude":42.4207318926,
        "longitude":-83.159115212
     },
     {
        "parcelno":"16035138.",
        "propaddr":"17133 WISCONSIN",
        "latitude":42.4174951865,
        "longitude":-83.1573363664
     },
     {
        "parcelno":"16033263.",
        "propaddr":"17505 CHERRYLAWN",
        "latitude":42.4207916639,
        "longitude":-83.1553222789
     },
     {
        "parcelno":"16032245.",
        "propaddr":"17305 NORTHLAWN",
        "latitude":42.4189756195,
        "longitude":-83.1540306616
     },
     {
        "parcelno":"16029486.",
        "propaddr":"17500 GREENLAWN",
        "latitude":42.4208579032,
        "longitude":-83.1510161361
     },
     {
        "parcelno":"16007750.",
        "propaddr":"8900 PURITAN",
        "latitude":42.4099437658,
        "longitude":-83.1591443983
     },
     {
        "parcelno":"16037170.",
        "propaddr":"13139 KENTUCKY",
        "latitude":42.3842461176,
        "longitude":-83.1582063231
     },
     {
        "parcelno":"16007804.",
        "propaddr":"8326 PURITAN",
        "latitude":42.4099849704,
        "longitude":-83.1530928298
     },
     {
        "parcelno":"16030345.",
        "propaddr":"16502 ROSELAWN",
        "latitude":42.4123323769,
        "longitude":-83.1518702933
     },
     {
        "parcelno":"16035182.",
        "propaddr":"15803 WISCONSIN",
        "latitude":42.4080282284,
        "longitude":-83.1569451651
     },
     {
        "parcelno":"16034300-7",
        "propaddr":"15459 OHIO",
        "latitude":42.4052105083,
        "longitude":-83.1557289805
     },
     {
        "parcelno":"16033323.",
        "propaddr":"15895 CHERRYLAWN",
        "latitude":42.4092832477,
        "longitude":-83.1548737669
     },
     {
        "parcelno":"16033352.",
        "propaddr":"15703 CHERRYLAWN",
        "latitude":42.4062908189,
        "longitude":-83.1547619722
     },
     {
        "parcelno":"16031803.",
        "propaddr":"15508 NORTHLAWN",
        "latitude":42.4059446796,
        "longitude":-83.1531956177
     },
     {
        "parcelno":"16028908.",
        "propaddr":"8000 PILGRIM",
        "latitude":42.4075825902,
        "longitude":-83.1499562075
     },
     {
        "parcelno":"16006726.001",
        "propaddr":"8670 ELLSWORTH",
        "latitude":42.4019852072,
        "longitude":-83.158059669
     },
     {
        "parcelno":"16036116.",
        "propaddr":"14871 INDIANA",
        "latitude":42.3990247418,
        "longitude":-83.1577263265
     },
     {
        "parcelno":"16033713.",
        "propaddr":"14530 OHIO",
        "latitude":42.395803758,
        "longitude":-83.1549413795
     },
     {
        "parcelno":"16032354.",
        "propaddr":"14921 NORTHLAWN",
        "latitude":42.399756239,
        "longitude":-83.1536520705
     },
     {
        "parcelno":"16037106.",
        "propaddr":"14205 KENTUCKY",
        "latitude":42.391839811,
        "longitude":-83.1584529224
     },
     {
        "parcelno":"16037133.",
        "propaddr":"13901 KENTUCKY",
        "latitude":42.3886779165,
        "longitude":-83.1583524439
     },
     {
        "parcelno":"16037143.",
        "propaddr":"13595 KENTUCKY",
        "latitude":42.3874572946,
        "longitude":-83.1582927667
     },
     {
        "parcelno":"16034626.",
        "propaddr":"14202 WISCONSIN",
        "latitude":42.3918838995,
        "longitude":-83.1559252529
     },
     {
        "parcelno":"16037286.",
        "propaddr":"12756 WYOMING",
        "latitude":42.3829781542,
        "longitude":-83.1585913743
     },
     {
        "parcelno":"16032695.",
        "propaddr":"13900 CHERRYLAWN",
        "latitude":42.3887656936,
        "longitude":-83.1538162611
     },
     {
        "parcelno":"16005855-6",
        "propaddr":"8319 INTERVALE",
        "latitude":42.3915786222,
        "longitude":-83.1524680124
     },
     {
        "parcelno":"16031429.",
        "propaddr":"13903 CLOVERLAWN",
        "latitude":42.3888022932,
        "longitude":-83.1522155328
     },
     {
        "parcelno":"16030879.",
        "propaddr":"14203 ROSELAWN",
        "latitude":42.3919877613,
        "longitude":-83.1512212658
     },
     {
        "parcelno":"16030901.",
        "propaddr":"13949 ROSELAWN",
        "latitude":42.3894418439,
        "longitude":-83.1511190654
     },
     {
        "parcelno":"16030248-9",
        "propaddr":"14088 ROSELAWN",
        "latitude":42.3913955631,
        "longitude":-83.1506120997
     },
     {
        "parcelno":"18017424.",
        "propaddr":"8218 PINEHURST",
        "latitude":42.3543433598,
        "longitude":-83.1647717756
     },
     {
        "parcelno":"18018488.",
        "propaddr":"8283 MANOR",
        "latitude":42.3551827706,
        "longitude":-83.1667173341
     },
     {
        "parcelno":"16033544.",
        "propaddr":"12215 CHERRYLAWN",
        "latitude":42.3789084668,
        "longitude":-83.154096468
     },
     {
        "parcelno":"18015108.",
        "propaddr":"11646 OHIO",
        "latitude":42.3742760338,
        "longitude":-83.1540326239
     },
     {
        "parcelno":"18006759.",
        "propaddr":"11019 W GRAND RIVER",
        "latitude":42.373865684,
        "longitude":-83.1522896001
     },
     {
        "parcelno":"16031080.",
        "propaddr":"12300 CLOVERLAWN",
        "latitude":42.379216316,
        "longitude":-83.1512966737
     },
     {
        "parcelno":"16031049.",
        "propaddr":"12008 CLOVERLAWN",
        "latitude":42.3760732259,
        "longitude":-83.1512144021
     },
     {
        "parcelno":"18015998.",
        "propaddr":"9800 WYOMING",
        "latitude":42.3685951493,
        "longitude":-83.1581522066
     },
     {
        "parcelno":"18016340.",
        "propaddr":"4450 OAKMAN BLVD",
        "latitude":42.3702633262,
        "longitude":-83.1522908783
     },
     {
        "parcelno":"18018045.",
        "propaddr":"8208 MANOR",
        "latitude":42.3541657056,
        "longitude":-83.1659045745
     },
     {
        "parcelno":"18017844.",
        "propaddr":"8910 ESPER",
        "latitude":42.3600503852,
        "longitude":-83.1559479131
     },
     {
        "parcelno":"18015327.002L",
        "propaddr":"9352 WISCONSIN",
        "latitude":42.364987468,
        "longitude":-83.1552258795
     },
     {
        "parcelno":"18017963.",
        "propaddr":"9158 DAWES",
        "latitude":42.3624614087,
        "longitude":-83.1540737461
     },
     {
        "parcelno":"18015175-6",
        "propaddr":"9245 OHIO",
        "latitude":42.363460277,
        "longitude":-83.1535106759
     },
     {
        "parcelno":"18005519-21",
        "propaddr":"8333 CHICAGO",
        "latitude":42.3659933984,
        "longitude":-83.1518528718
     },
     {
        "parcelno":"18014423.",
        "propaddr":"9300 CLOVERLAWN",
        "latitude":42.3637956364,
        "longitude":-83.150576179
     },
     {
        "parcelno":"18014154.",
        "propaddr":"9400 ROSELAWN",
        "latitude":42.3649656782,
        "longitude":-83.149228511
     },
     {
        "parcelno":"18015608.",
        "propaddr":"8203 INDIANA",
        "latitude":42.3542775894,
        "longitude":-83.1556301547
     },
     {
        "parcelno":"18004932.",
        "propaddr":"8400 TIREMAN",
        "latitude":42.3520744565,
        "longitude":-83.1517905733
     },
     {
        "parcelno":"18014539.",
        "propaddr":"8203 CLOVERLAWN",
        "latitude":42.3543713784,
        "longitude":-83.1510518154
     },
     {
        "parcelno":"18014036.",
        "propaddr":"8501 GREENLAWN",
        "latitude":42.3568498152,
        "longitude":-83.1491890008
     },
     {
        "parcelno":"18014079-80",
        "propaddr":"8027 GREENLAWN",
        "latitude":42.352408327,
        "longitude":-83.1489218098
     },
     {
        "parcelno":"18016469.",
        "propaddr":"8227 NORMILE",
        "latitude":42.3545588458,
        "longitude":-83.1591037147
     },
     {
        "parcelno":"18016182-3",
        "propaddr":"8283 WYOMING",
        "latitude":42.3553787029,
        "longitude":-83.1580228668
     },
     {
        "parcelno":"18018575.",
        "propaddr":"8826 MEYERS",
        "latitude":42.3592161317,
        "longitude":-83.1673783343
     },
     {
        "parcelno":"18018108.",
        "propaddr":"8860 MANOR",
        "latitude":42.3597211005,
        "longitude":-83.1662110169
     },
     {
        "parcelno":"18018686.",
        "propaddr":"11316 MEYERS",
        "latitude":42.3713744936,
        "longitude":-83.1677094659
     },
     {
        "parcelno":"18018684.",
        "propaddr":"11300 MEYERS",
        "latitude":42.3711791319,
        "longitude":-83.167703102
     },
     {
        "parcelno":"18016393-6",
        "propaddr":"5440 OAKMAN BLVD",
        "latitude":42.3593591001,
        "longitude":-83.1612221147
     },
     {
        "parcelno":"18018379.",
        "propaddr":"9561 MANOR",
        "latitude":42.3669329199,
        "longitude":-83.1670856345
     },
     {
        "parcelno":"18017663.",
        "propaddr":"11303 PINEHURST",
        "latitude":42.3712136341,
        "longitude":-83.1660153586
     },
     {
        "parcelno":"18006649.",
        "propaddr":"10455 PLYMOUTH",
        "latitude":42.3730976867,
        "longitude":-83.1643419782
     },
     {
        "parcelno":"18005892.",
        "propaddr":"10389 VIOLETLAWN",
        "latitude":42.3672886307,
        "longitude":-83.1633947748
     },
     {
        "parcelno":"18006518.",
        "propaddr":"10106 AURORA",
        "latitude":42.3721908486,
        "longitude":-83.1606179016
     },
     {
        "parcelno":"18006525.",
        "propaddr":"10050 AURORA",
        "latitude":42.3722178241,
        "longitude":-83.1595824757
     },
     {
        "parcelno":"18016083.",
        "propaddr":"10329 WYOMING",
        "latitude":42.3708628232,
        "longitude":-83.1587389274
     },
     {
        "parcelno":"02002635.009",
        "propaddr":"1001 COVINGTON 9",
        "latitude":42.4213663016,
        "longitude":-83.1169245962
     },
     {
        "parcelno":"18017215.",
        "propaddr":"12190 MENDOTA",
        "latitude":42.3779615174,
        "longitude":-83.164551719
     },
     {
        "parcelno":"16041810.",
        "propaddr":"12322 BIRWOOD",
        "latitude":42.3788693992,
        "longitude":-83.1627150123
     },
     {
        "parcelno":"16045160.",
        "propaddr":"13191 MONTE VISTA",
        "latitude":42.3847285762,
        "longitude":-83.1666437823
     },
     {
        "parcelno":"16039941.",
        "propaddr":"12741 WASHBURN",
        "latitude":42.38272332,
        "longitude":-83.1602534939
     },
     {
        "parcelno":"16038600.",
        "propaddr":"13617 WYOMING",
        "latitude":42.3877694583,
        "longitude":-83.1593449103
     },
     {
        "parcelno":"02002715.",
        "propaddr":"1000 WHITMORE RD",
        "latitude":42.4207253373,
        "longitude":-83.1174010393
     },
     {
        "parcelno":"22026144.",
        "propaddr":"15033 CHEYENNE",
        "latitude":42.4004781873,
        "longitude":-83.1750383773
     },
     {
        "parcelno":"02002725.005L",
        "propaddr":"17290 PONTCHARTRAIN",
        "latitude":42.4201696247,
        "longitude":-83.1176623927
     },
     {
        "parcelno":"02002716.",
        "propaddr":"17549 MANDERSON",
        "latitude":42.4203570788,
        "longitude":-83.1171464447
     },
     {
        "parcelno":"16045784.",
        "propaddr":"14129 MANOR",
        "latitude":42.390595871,
        "longitude":-83.1680935078
     },
     {
        "parcelno":"16044397.",
        "propaddr":"14103 PINEHURST",
        "latitude":42.3902849859,
        "longitude":-83.16592272
     },
     {
        "parcelno":"16044398.",
        "propaddr":"14017 PINEHURST",
        "latitude":42.3900180608,
        "longitude":-83.1659113989
     },
     {
        "parcelno":"16044404.",
        "propaddr":"13975 PINEHURST",
        "latitude":42.3894422577,
        "longitude":-83.1658812658
     },
     {
        "parcelno":"16043722.",
        "propaddr":"14180 PINEHURST",
        "latitude":42.3913936741,
        "longitude":-83.1653459781
     },
     {
        "parcelno":"16042631.",
        "propaddr":"14125 BIRWOOD",
        "latitude":42.3906762504,
        "longitude":-83.1636378296
     },
     {
        "parcelno":"16045659.",
        "propaddr":"16869 MANOR",
        "latitude":42.4152737423,
        "longitude":-83.1692341516
     },
     {
        "parcelno":"16040803-4",
        "propaddr":"14667 ILENE",
        "latitude":42.3976502287,
        "longitude":-83.161881533
     },
     {
        "parcelno":"16040137.",
        "propaddr":"14502 ILENE",
        "latitude":42.3953475246,
        "longitude":-83.1611444945
     },
     {
        "parcelno":"16039171.",
        "propaddr":"15000 WASHBURN",
        "latitude":42.4003651899,
        "longitude":-83.1603208405
     },
     {
        "parcelno":"16045384.",
        "propaddr":"15872 MANOR",
        "latitude":42.4088108745,
        "longitude":-83.1683521198
     },
     {
        "parcelno":"16044656.",
        "propaddr":"15804 MONTE VISTA",
        "latitude":42.4078429317,
        "longitude":-83.167258729
     },
     {
        "parcelno":"16043805.",
        "propaddr":"15804 PINEHURST",
        "latitude":42.4078641141,
        "longitude":-83.1662017321
     },
     {
        "parcelno":"16007414.",
        "propaddr":"10414 PILGRIM",
        "latitude":42.4080508174,
        "longitude":-83.1645703809
     },
     {
        "parcelno":"16007128.",
        "propaddr":"10402 FENKELL",
        "latitude":42.4026302014,
        "longitude":-83.1642541036
     },
     {
        "parcelno":"16040741.",
        "propaddr":"15437 ILENE",
        "latitude":42.4048422086,
        "longitude":-83.162259215
     },
     {
        "parcelno":"16040217.",
        "propaddr":"15396 ILENE",
        "latitude":42.4041396101,
        "longitude":-83.1615936883
     },
     {
        "parcelno":"16038430-5",
        "propaddr":"15671 WYOMING",
        "latitude":42.4059454423,
        "longitude":-83.160197465
     },
     {
        "parcelno":"16044680.",
        "propaddr":"16194 MONTE VISTA",
        "latitude":42.4110609608,
        "longitude":-83.1674762817
     },
     {
        "parcelno":"16008043.",
        "propaddr":"10545 W MCNICHOLS",
        "latitude":42.4164874367,
        "longitude":-83.1666737835
     },
     {
        "parcelno":"16043410.",
        "propaddr":"16249 MENDOTA",
        "latitude":42.4112305801,
        "longitude":-83.1657751731
     },
     {
        "parcelno":"16042048.",
        "propaddr":"16156 BIRWOOD",
        "latitude":42.4105270657,
        "longitude":-83.1640804984
     },
     {
        "parcelno":"16008026-7",
        "propaddr":"10341 W MCNICHOLS",
        "latitude":42.4165709667,
        "longitude":-83.1644174539
     },
     {
        "parcelno":"16041556.",
        "propaddr":"16929 GRIGGS",
        "latitude":42.4162660595,
        "longitude":-83.1638458246
     },
     {
        "parcelno":"16040270.",
        "propaddr":"16526 ILENE",
        "latitude":42.412566439,
        "longitude":-83.1619844645
     },
     {
        "parcelno":"16008502.",
        "propaddr":"10605 CURTIS",
        "latitude":42.4237939514,
        "longitude":-83.1673588597
     },
     {
        "parcelno":"16042995.",
        "propaddr":"17120 MENDOTA",
        "latitude":42.4172608267,
        "longitude":-83.165499291
     },
     {
        "parcelno":"16008481.",
        "propaddr":"10401 CURTIS",
        "latitude":42.4238502197,
        "longitude":-83.1651915461
     },
     {
        "parcelno":"16040640.",
        "propaddr":"17303 ILENE",
        "latitude":42.4188029388,
        "longitude":-83.162904119
     },
     {
        "parcelno":"16008457.",
        "propaddr":"10101 CURTIS",
        "latitude":42.4239118547,
        "longitude":-83.1619165071
     },
     {
        "parcelno":"16044792.",
        "propaddr":"19460 MONTE VISTA",
        "latitude":42.4358840965,
        "longitude":-83.1684223133
     },
     {
        "parcelno":"16046284.",
        "propaddr":"19350 MEYERS",
        "latitude":42.4341270193,
        "longitude":-83.1704634249
     },
     {
        "parcelno":"16043083.",
        "propaddr":"18900 MENDOTA",
        "latitude":42.4296405141,
        "longitude":-83.1660294654
     },
     {
        "parcelno":"16045482.",
        "propaddr":"19458 MANOR",
        "latitude":42.4358670175,
        "longitude":-83.169461974
     },
     {
        "parcelno":"16045481.",
        "propaddr":"19450 MANOR",
        "latitude":42.4357572869,
        "longitude":-83.1694588671
     },
     {
        "parcelno":"16045480.",
        "propaddr":"19440 MANOR",
        "latitude":42.4356475558,
        "longitude":-83.1694557599
     },
     {
        "parcelno":"16045479.",
        "propaddr":"19434 MANOR",
        "latitude":42.4355254597,
        "longitude":-83.1694520091
     },
     {
        "parcelno":"16008975.",
        "propaddr":"4394 W OUTER DRIVE",
        "latitude":42.4352520331,
        "longitude":-83.1695564585
     },
     {
        "parcelno":"16045530.",
        "propaddr":"20452 MANOR",
        "latitude":42.4438992268,
        "longitude":-83.1697435974
     },
     {
        "parcelno":"16009483.",
        "propaddr":"10401 W EIGHT MILE",
        "latitude":42.4452801064,
        "longitude":-83.1660206898
     },
     {
        "parcelno":"16041359.",
        "propaddr":"20230 GRIGGS",
        "latitude":42.4427353594,
        "longitude":-83.1643377515
     },
     {
        "parcelno":"16039462.",
        "propaddr":"20400 WASHBURN",
        "latitude":42.4433543468,
        "longitude":-83.1621847442
     },
     {
        "parcelno":"22030310-11",
        "propaddr":"20000 SCHAEFER",
        "latitude":42.4398089413,
        "longitude":-83.180405327
     },
     {
        "parcelno":"22028943.007",
        "propaddr":"20195 HARTWELL",
        "latitude":42.4419570353,
        "longitude":-83.1801183099
     },
     {
        "parcelno":"22028951.",
        "propaddr":"20121 HARTWELL",
        "latitude":42.4408817652,
        "longitude":-83.1800491026
     },
     {
        "parcelno":"22028940.",
        "propaddr":"20152 HARTWELL",
        "latitude":42.4413382191,
        "longitude":-83.1794262265
     },
     {
        "parcelno":"22028011.",
        "propaddr":"20177 SNOWDEN",
        "latitude":42.4416792528,
        "longitude":-83.1790091345
     },
     {
        "parcelno":"22018576-7",
        "propaddr":"13333 W EIGHT MILE",
        "latitude":42.4449372656,
        "longitude":-83.1784410848
     },
     {
        "parcelno":"04000330-9",
        "propaddr":"868 MICHIGAN AVE",
        "latitude":42.3318887976,
        "longitude":-83.0583111027
     },
     {
        "parcelno":"22030189.",
        "propaddr":"18514 SCHAEFER",
        "latitude":42.4273904158,
        "longitude":-83.179965703
     },
     {
        "parcelno":"22029064-5",
        "propaddr":"18301 HARTWELL",
        "latitude":42.4250110664,
        "longitude":-83.1792774268
     },
     {
        "parcelno":"22028117.",
        "propaddr":"18319 SNOWDEN",
        "latitude":42.4255870705,
        "longitude":-83.178199277
     },
     {
        "parcelno":"22027153.",
        "propaddr":"18317 LITTLEFIELD",
        "latitude":42.4255977791,
        "longitude":-83.1770289321
     },
     {
        "parcelno":"22026958.",
        "propaddr":"18600 LITTLEFIELD",
        "latitude":42.4276768839,
        "longitude":-83.1764653558
     },
     {
        "parcelno":"22026928.",
        "propaddr":"18202 LITTLEFIELD",
        "latitude":42.4240524819,
        "longitude":-83.1762852968
     },
     {
        "parcelno":"22125277.",
        "propaddr":"5225 W OUTER DRIVE",
        "latitude":42.4274349578,
        "longitude":-83.1749081316
     },
     {
        "parcelno":"22023945.",
        "propaddr":"18987 SORRENTO",
        "latitude":42.4306641948,
        "longitude":-83.17452936
     },
     {
        "parcelno":"22022497.",
        "propaddr":"18318 STEEL",
        "latitude":42.425670006,
        "longitude":-83.1724553887
     },
     {
        "parcelno":"22021492.",
        "propaddr":"18603 APPOLINE",
        "latitude":42.4277405133,
        "longitude":-83.1720512708
     },
     {
        "parcelno":"22024942.",
        "propaddr":"17166 WARD",
        "latitude":42.4176742611,
        "longitude":-83.1745845546
     },
     {
        "parcelno":"22029124.",
        "propaddr":"16505 HARTWELL",
        "latitude":42.4119209534,
        "longitude":-83.1787970207
     },
     {
        "parcelno":"22027215.",
        "propaddr":"16843 LITTLEFIELD",
        "latitude":42.414856821,
        "longitude":-83.176765493
     },
     {
        "parcelno":"22012773-4",
        "propaddr":"13301 W MCNICHOLS",
        "latitude":42.4163286133,
        "longitude":-83.1767245816
     },
     {
        "parcelno":"22026843-4",
        "propaddr":"16130 LITTLEFIELD",
        "latitude":42.4099435823,
        "longitude":-83.1759431527
     },
     {
        "parcelno":"22025111.",
        "propaddr":"16537 WARD",
        "latitude":42.4124736291,
        "longitude":-83.1744881942
     },
     {
        "parcelno":"22023638.",
        "propaddr":"16214 SORRENTO",
        "latitude":42.41114432,
        "longitude":-83.1726852848
     },
     {
        "parcelno":"22022848.",
        "propaddr":"16503 STEEL",
        "latitude":42.4120591069,
        "longitude":-83.1722830055
     },
     {
        "parcelno":"22012381.",
        "propaddr":"12794 PURITAN",
        "latitude":42.4097462384,
        "longitude":-83.1706715937
     },
     {
        "parcelno":"22029176.",
        "propaddr":"15703 HARTWELL",
        "latitude":42.4058802839,
        "longitude":-83.1785241547
     },
     {
        "parcelno":"22021106.",
        "propaddr":"15800 APPOLINE",
        "latitude":42.4078219905,
        "longitude":-83.1704445881
     },
     {
        "parcelno":"22029222.",
        "propaddr":"15025 HARTWELL",
        "latitude":42.4003343137,
        "longitude":-83.1782564988
     },
     {
        "parcelno":"22029838-40",
        "propaddr":"13555 SCHOOLCRAFT",
        "latitude":42.387747482,
        "longitude":-83.1781766107
     },
     {
        "parcelno":"22026755.",
        "propaddr":"14918 LITTLEFIELD",
        "latitude":42.3990708279,
        "longitude":-83.1754240824
     },
     {
        "parcelno":"22026149.",
        "propaddr":"14975 CHEYENNE",
        "latitude":42.3998219449,
        "longitude":-83.1750003472
     },
     {
        "parcelno":"22025214.",
        "propaddr":"15003 WARD",
        "latitude":42.4001031496,
        "longitude":-83.1738966697
     },
     {
        "parcelno":"22021055.",
        "propaddr":"15066 APPOLINE",
        "latitude":42.4010450731,
        "longitude":-83.1700827707
     },
     {
        "parcelno":"22021853.",
        "propaddr":"12037 APPOLINE",
        "latitude":42.3761477811,
        "longitude":-83.1698470975
     },
     {
        "parcelno":"22021999.",
        "propaddr":"9904 IRIS",
        "latitude":42.3686970096,
        "longitude":-83.1695291412
     },
     {
        "parcelno":"22027540.",
        "propaddr":"9303 LITTLEFIELD",
        "latitude":42.3638047991,
        "longitude":-83.1756002948
     },
     {
        "parcelno":"08009348.",
        "propaddr":"15411 14TH ST",
        "latitude":42.4047883118,
        "longitude":-83.120249527
     },
     {
        "parcelno":"08009067.",
        "propaddr":"15503 WABASH",
        "latitude":42.4056371414,
        "longitude":-83.1193127729
     },
     {
        "parcelno":"08007286.",
        "propaddr":"15831 JOSLYN",
        "latitude":42.4099441419,
        "longitude":-83.1168875818
     },
     {
        "parcelno":"08005171.",
        "propaddr":"1737 PURITAN",
        "latitude":42.4101415789,
        "longitude":-83.1169964058
     },
     {
        "parcelno":"22029519-30",
        "propaddr":"8000 SCHAEFER",
        "latitude":42.3517262093,
        "longitude":-83.1768402779
     },
     {
        "parcelno":"22026487.",
        "propaddr":"8520 LITTLEFIELD",
        "latitude":42.3566719465,
        "longitude":-83.1742584887
     },
     {
        "parcelno":"22026460.",
        "propaddr":"8125 CHEYENNE",
        "latitude":42.3531603324,
        "longitude":-83.174213052
     },
     {
        "parcelno":"22002102-5",
        "propaddr":"13201 JOY RD",
        "latitude":42.3583349978,
        "longitude":-83.1740641821
     },
     {
        "parcelno":"22002078-9",
        "propaddr":"13001 JOY RD",
        "latitude":42.3583775942,
        "longitude":-83.1717036669
     },
     {
        "parcelno":"22023229.",
        "propaddr":"6620 OAKMAN BLVD",
        "latitude":42.3531664279,
        "longitude":-83.1704400901
     },
     {
        "parcelno":"22026478.",
        "propaddr":"8130 LITTLEFIELD",
        "latitude":42.3532782111,
        "longitude":-83.1694283383
     },
     {
        "parcelno":"22027613.",
        "propaddr":"8067 LITTLEFIELD",
        "latitude":42.3523040813,
        "longitude":-83.1689884069
     },
     {
        "parcelno":"22031196-8",
        "propaddr":"8301 SCHAEFER",
        "latitude":42.3550881563,
        "longitude":-83.1776911333
     },
     {
        "parcelno":"22006069-73",
        "propaddr":"14400 PLYMOUTH",
        "latitude":42.373150647,
        "longitude":-83.1856300234
     },
     {
        "parcelno":"22006463.",
        "propaddr":"13812 CAPITOL",
        "latitude":42.3771978443,
        "longitude":-83.1823043824
     },
     {
        "parcelno":"22035337.",
        "propaddr":"14039 ARDMORE",
        "latitude":42.3898478916,
        "longitude":-83.18430914
     },
     {
        "parcelno":"22008358.",
        "propaddr":"13917 FREELAND",
        "latitude":42.3876935624,
        "longitude":-83.1851447354
     },
     {
        "parcelno":"22033333.",
        "propaddr":"14386 STANSBURY",
        "latitude":42.3938514461,
        "longitude":-83.1816093557
     },
     {
        "parcelno":"22032618.",
        "propaddr":"14912 LESURE",
        "latitude":42.3988311118,
        "longitude":-83.1807736494
     },
     {
        "parcelno":"22011453-8",
        "propaddr":"14300 FENKELL",
        "latitude":42.4021373199,
        "longitude":-83.1858782158
     },
     {
        "parcelno":"22036211.",
        "propaddr":"15401 FREELAND",
        "latitude":42.4038459543,
        "longitude":-83.1858735663
     },
     {
        "parcelno":"06003927.",
        "propaddr":"1683 CLEMENTS",
        "latitude":42.3972991271,
        "longitude":-83.1129246945
     },
     {
        "parcelno":"22011997-2001",
        "propaddr":"13631 PURITAN",
        "latitude":42.4090751981,
        "longitude":-83.1801940529
     },
     {
        "parcelno":"22030778-80",
        "propaddr":"15425 SCHAEFER",
        "latitude":42.4041099007,
        "longitude":-83.1795274185
     },
     {
        "parcelno":"22039174.",
        "propaddr":"16660 HUBBELL",
        "latitude":42.4137997483,
        "longitude":-83.1890796553
     },
     {
        "parcelno":"22039108-12",
        "propaddr":"14540 HUBBELL",
        "latitude":42.4093000485,
        "longitude":-83.1888966609
     },
     {
        "parcelno":"22034695.",
        "propaddr":"16126 ARDMORE",
        "latitude":42.4096673588,
        "longitude":-83.1845682565
     },
     {
        "parcelno":"22012817-22",
        "propaddr":"14015 W MCNICHOLS",
        "latitude":42.4162569787,
        "longitude":-83.183303263
     },
     {
        "parcelno":"22014702.",
        "propaddr":"14437 CURTIS",
        "latitude":42.4232825733,
        "longitude":-83.1882605828
     },
     {
        "parcelno":"22036926.",
        "propaddr":"18602 MARK TWAIN",
        "latitude":42.4273325666,
        "longitude":-83.1871528247
     },
     {
        "parcelno":"22036066.",
        "propaddr":"18307 FREELAND",
        "latitude":42.4252094265,
        "longitude":-83.1866158829
     },
     {
        "parcelno":"22038092.",
        "propaddr":"19804 STRATHMOOR",
        "latitude":42.4376555257,
        "longitude":-83.1887671025
     },
     {
        "parcelno":"22039570.002L",
        "propaddr":"20434 HUBBELL",
        "latitude":42.4433271454,
        "longitude":-83.190324998
     },
     {
        "parcelno":"22033777.",
        "propaddr":"19131 STANSBURY",
        "latitude":42.4314709741,
        "longitude":-83.1843679442
     },
     {
        "parcelno":"22031520.",
        "propaddr":"19340 TRACEY",
        "latitude":42.4337446161,
        "longitude":-83.1814071152
     },
     {
        "parcelno":"22039492-3",
        "propaddr":"19910 HUBBELL",
        "latitude":42.4382568226,
        "longitude":-83.1899706847
     },
     {
        "parcelno":"22048877-905",
        "propaddr":"20149 PREST",
        "latitude":42.4404263047,
        "longitude":-83.1988664398
     },
     {
        "parcelno":"22046494-6",
        "propaddr":"20503 OXLEY",
        "latitude":42.4440051762,
        "longitude":-83.1971311798
     },
     {
        "parcelno":"22047765.",
        "propaddr":"19775 WHITCOMB",
        "latitude":42.436956957,
        "longitude":-83.1980885702
     },
     {
        "parcelno":"22018671-6",
        "propaddr":"14835 W EIGHT MILE",
        "latitude":42.4446628272,
        "longitude":-83.194010589
     },
     {
        "parcelno":"22017337-46",
        "propaddr":"14606 W SEVEN MILE",
        "latitude":42.4309620509,
        "longitude":-83.1905050672
     },
     {
        "parcelno":"22046421.",
        "propaddr":"19400 SUSSEX",
        "latitude":42.4342743303,
        "longitude":-83.1959362021
     },
     {
        "parcelno":"22045146.",
        "propaddr":"19300 COYLE",
        "latitude":42.4324949108,
        "longitude":-83.1945987138
     },
     {
        "parcelno":"22019345-9",
        "propaddr":"19800 JAMES COUZENS",
        "latitude":42.4372886815,
        "longitude":-83.1929964714
     },
     {
        "parcelno":"22042112.",
        "propaddr":"19364 LAUDER",
        "latitude":42.4338647754,
        "longitude":-83.1921383603
     },
     {
        "parcelno":"22048993.",
        "propaddr":"18901 PREST",
        "latitude":42.4287511602,
        "longitude":-83.1989361785
     },
     {
        "parcelno":"22046580.",
        "propaddr":"18901 SUSSEX",
        "latitude":42.4288327247,
        "longitude":-83.1964225908
     },
     {
        "parcelno":"22042245.",
        "propaddr":"18901 LAUDER",
        "latitude":42.4289450806,
        "longitude":-83.1928369314
     },
     {
        "parcelno":"22050040.002L",
        "propaddr":"16270 GREENFIELD",
        "latitude":42.4107490929,
        "longitude":-83.1987174089
     },
     {
        "parcelno":"22050163.",
        "propaddr":"18008 GREENFIELD",
        "latitude":42.4215316706,
        "longitude":-83.1991393601
     },
     {
        "parcelno":"22048759.",
        "propaddr":"17520 PREST",
        "latitude":42.4199278089,
        "longitude":-83.1979316362
     },
     {
        "parcelno":"22125513.002",
        "propaddr":"18040 COYLE",
        "latitude":42.4221786486,
        "longitude":-83.1940912901
     },
     {
        "parcelno":"22048649.",
        "propaddr":"15490 PREST",
        "latitude":42.4047009088,
        "longitude":-83.1973101088
     },
     {
        "parcelno":"22011371.002",
        "propaddr":"15130 FENKELL 10",
        "latitude":42.4018808337,
        "longitude":-83.1944137379
     },
     {
        "parcelno":"06003749.001",
        "propaddr":"1565 TYLER",
        "latitude":42.3960310927,
        "longitude":-83.1088989649
     },
     {
        "parcelno":"06003569.",
        "propaddr":"1567 LESLIE",
        "latitude":42.3935689777,
        "longitude":-83.1073946698
     },
     {
        "parcelno":"22049184.",
        "propaddr":"15107 PREST",
        "latitude":42.4008979979,
        "longitude":-83.1978490728
     },
     {
        "parcelno":"22045503.",
        "propaddr":"14835 COYLE",
        "latitude":42.3973874224,
        "longitude":-83.1939802056
     },
     {
        "parcelno":"22043056.",
        "propaddr":"14607 TERRY",
        "latitude":42.3960050806,
        "longitude":-83.1919160324
     },
     {
        "parcelno":"22041892.",
        "propaddr":"14800 LAUDER",
        "latitude":42.3970339586,
        "longitude":-83.1904199597
     },
     {
        "parcelno":"22041294.",
        "propaddr":"14621 MARLOWE",
        "latitude":42.3962542835,
        "longitude":-83.1899568043
     },
     {
        "parcelno":"22040084.",
        "propaddr":"14211 HUBBELL",
        "latitude":42.3912156794,
        "longitude":-83.1887779591
     },
     {
        "parcelno":"22040085.",
        "propaddr":"14203 HUBBELL",
        "latitude":42.3911061324,
        "longitude":-83.188774142
     },
     {
        "parcelno":"22008691.001",
        "propaddr":"15417 SCHOOLCRAFT",
        "latitude":42.3868439022,
        "longitude":-83.1973102728
     },
     {
        "parcelno":"22008689-90",
        "propaddr":"15405 SCHOOLCRAFT",
        "latitude":42.3868497641,
        "longitude":-83.1971336241
     },
     {
        "parcelno":"22008688.",
        "propaddr":"15347 SCHOOLCRAFT",
        "latitude":42.3868662561,
        "longitude":-83.1966526873
     },
     {
        "parcelno":"22048572.",
        "propaddr":"13398 PREST",
        "latitude":42.3866361746,
        "longitude":-83.1964856975
     },
     {
        "parcelno":"22048571.",
        "propaddr":"13390 PREST",
        "latitude":42.3865263947,
        "longitude":-83.1964828561
     },
     {
        "parcelno":"22040190.",
        "propaddr":"11645 HUBBELL",
        "latitude":42.3735383918,
        "longitude":-83.1880958988
     },
     {
        "parcelno":"22061621.",
        "propaddr":"19400 ASBURY PARK",
        "latitude":42.4340351964,
        "longitude":-83.2094157909
     },
     {
        "parcelno":"22049342.",
        "propaddr":"9525 PREST",
        "latitude":42.36587819,
        "longitude":-83.1964848163
     },
     {
        "parcelno":"22045683.",
        "propaddr":"11301 COYLE",
        "latitude":42.3704358486,
        "longitude":-83.1933958048
     },
     {
        "parcelno":"22049675-83",
        "propaddr":"9300 GREENFIELD",
        "latitude":42.3638206292,
        "longitude":-83.1968485345
     },
     {
        "parcelno":"22044751.",
        "propaddr":"11428 COYLE",
        "latitude":42.3721745045,
        "longitude":-83.1928599866
     },
     {
        "parcelno":"22040544.",
        "propaddr":"10054 MARLOWE",
        "latitude":42.370269951,
        "longitude":-83.1884124304
     },
     {
        "parcelno":"22041497.",
        "propaddr":"9663 MARLOWE",
        "latitude":42.3669589504,
        "longitude":-83.18916683
     },
     {
        "parcelno":"22043438.",
        "propaddr":"8918 ROBSON",
        "latitude":42.3600132609,
        "longitude":-83.1913355924
     },
     {
        "parcelno":"22040305-6",
        "propaddr":"8847 HUBBELL",
        "latitude":42.3591354841,
        "longitude":-83.1875620763
     },
     {
        "parcelno":"",
        "propaddr":"",
        "latitude":42.357934399,
        "longitude":-83.1939968875
     },
     {
        "parcelno":"06003347.",
        "propaddr":"1671 RICHTON",
        "latitude":42.3896810772,
        "longitude":-83.1074044489
     },
     {
        "parcelno":"22000087-9",
        "propaddr":"15841 W WARREN",
        "latitude":42.3433330117,
        "longitude":-83.2009217409
     },
     {
        "parcelno":"22056776.",
        "propaddr":"7559 RUTHERFORD",
        "latitude":42.3482165431,
        "longitude":-83.2017174627
     },
     {
        "parcelno":"22059678-0",
        "propaddr":"8478 METTETAL",
        "latitude":42.355524726,
        "longitude":-83.2050379678
     },
     {
        "parcelno":"22055700.",
        "propaddr":"7400 RUTHERFORD",
        "latitude":42.3461026242,
        "longitude":-83.2009417553
     },
     {
        "parcelno":"22059371.",
        "propaddr":"8587 ST MARYS",
        "latitude":42.3558924969,
        "longitude":-83.2044234006
     },
     {
        "parcelno":"06003059.",
        "propaddr":"1667 BURLINGAME",
        "latitude":42.385974208,
        "longitude":-83.103904652
     },
     {
        "parcelno":"06002876.",
        "propaddr":"1636 COLLINGWOOD",
        "latitude":42.3847937263,
        "longitude":-83.1024983494
     },
     {
        "parcelno":"06003035.",
        "propaddr":"1435 BURLINGAME",
        "latitude":42.3872323296,
        "longitude":-83.1004277802
     },
     {
        "parcelno":"22054743.",
        "propaddr":"9101 FORRER",
        "latitude":42.3606111373,
        "longitude":-83.2005725793
     },
     {
        "parcelno":"22061305.",
        "propaddr":"14200 ASBURY PARK",
        "latitude":42.3907489403,
        "longitude":-83.2077158495
     },
     {
        "parcelno":"22057980.",
        "propaddr":"9659 MANSFIELD",
        "latitude":42.3675841699,
        "longitude":-83.2037073351
     },
     {
        "parcelno":"22051141.",
        "propaddr":"9903 GREENFIELD",
        "latitude":42.3679345293,
        "longitude":-83.1977461215
     },
     {
        "parcelno":"22059894.",
        "propaddr":"14310 METTETAL",
        "latitude":42.3919393312,
        "longitude":-83.2066877122
     },
     {
        "parcelno":"22059893.",
        "propaddr":"14300 METTETAL",
        "latitude":42.3918268978,
        "longitude":-83.2066830801
     },
     {
        "parcelno":"22059892.",
        "propaddr":"14258 METTETAL",
        "latitude":42.3915542905,
        "longitude":-83.206685006
     },
     {
        "parcelno":"22057072.",
        "propaddr":"11624 MANSFIELD",
        "latitude":42.3729934576,
        "longitude":-83.2032449977
     },
     {
        "parcelno":"22056650.",
        "propaddr":"12003 RUTHERFORD",
        "latitude":42.3747906081,
        "longitude":-83.2027877458
     },
     {
        "parcelno":"22053777.",
        "propaddr":"11668 FORRER",
        "latitude":42.3735766686,
        "longitude":-83.2008657125
     },
     {
        "parcelno":"22052523.",
        "propaddr":"11629 WINTHROP",
        "latitude":42.3730412523,
        "longitude":-83.1991184829
     },
     {
        "parcelno":"22061236.",
        "propaddr":"12752 ASBURY PARK",
        "latitude":42.3820920798,
        "longitude":-83.2072177537
     },
     {
        "parcelno":"22008701-2",
        "propaddr":"15601 SCHOOLCRAFT",
        "latitude":42.3867877722,
        "longitude":-83.1996030683
     },
     {
        "parcelno":"22051761.",
        "propaddr":"13944 WINTHROP",
        "latitude":42.3877516424,
        "longitude":-83.1989192676
     },
     {
        "parcelno":"22007145.",
        "propaddr":"16255 W GRAND RIVER",
        "latitude":42.3958794881,
        "longitude":-83.2070253605
     },
     {
        "parcelno":"22059129.",
        "propaddr":"14729 ST MARYS",
        "latitude":42.3965711914,
        "longitude":-83.2066747937
     },
     {
        "parcelno":"22058581.",
        "propaddr":"14504 ST MARYS",
        "latitude":42.394278831,
        "longitude":-83.2056699824
     },
     {
        "parcelno":"22056508.",
        "propaddr":"14885 RUTHERFORD",
        "latitude":42.3978043489,
        "longitude":-83.2043320119
     },
     {
        "parcelno":"22056528.",
        "propaddr":"14505 RUTHERFORD",
        "latitude":42.3943899749,
        "longitude":-83.2041279866
     },
     {
        "parcelno":"22055526.",
        "propaddr":"15005 PREVOST",
        "latitude":42.3993345985,
        "longitude":-83.2032212668
     },
     {
        "parcelno":"22061400.",
        "propaddr":"15880 ASBURY PARK",
        "latitude":42.4079165227,
        "longitude":-83.2083900889
     },
     {
        "parcelno":"22053959.",
        "propaddr":"15060 FORRER",
        "latitude":42.4002030417,
        "longitude":-83.2010509499
     },
     {
        "parcelno":"22052361.",
        "propaddr":"14915 WINTHROP",
        "latitude":42.3983155369,
        "longitude":-83.200431397
     },
     {
        "parcelno":"22050841.001",
        "propaddr":"15507 GREENFIELD",
        "latitude":42.4047705231,
        "longitude":-83.1993088129
     },
     {
        "parcelno":"22060046.",
        "propaddr":"16700 MURRAY HILL",
        "latitude":42.4122839024,
        "longitude":-83.207525885
     },
     {
        "parcelno":"22058691.",
        "propaddr":"16800 ST MARYS",
        "latitude":42.414121889,
        "longitude":-83.2065206736
     },
     {
        "parcelno":"22057317.",
        "propaddr":"16724 MANSFIELD",
        "latitude":42.4128162971,
        "longitude":-83.2053760511
     },
     {
        "parcelno":"22054377.",
        "propaddr":"16805 FORRER",
        "latitude":42.4142363619,
        "longitude":-83.2024430346
     },
     {
        "parcelno":"22012995.",
        "propaddr":"15811 W MCNICHOLS",
        "latitude":42.4156249553,
        "longitude":-83.2024178149
     },
     {
        "parcelno":"22055086.",
        "propaddr":"17376 PREVOST",
        "latitude":42.4188467839,
        "longitude":-83.2032376305
     },
     {
        "parcelno":"22014545.",
        "propaddr":"15563 THATCHER",
        "latitude":42.4208710941,
        "longitude":-83.2007615605
     },
     {
        "parcelno":"22014543.",
        "propaddr":"15547 THATCHER",
        "latitude":42.4208776921,
        "longitude":-83.2004763107
     },
     {
        "parcelno":"22058746.",
        "propaddr":"18900 ST MARYS",
        "latitude":42.4285998614,
        "longitude":-83.2070619815
     },
     {
        "parcelno":"22058704.001",
        "propaddr":"18200 ST MARYS",
        "latitude":42.4231921122,
        "longitude":-83.2068297615
     },
     {
        "parcelno":"22057590.",
        "propaddr":"18601 MANSFIELD",
        "latitude":42.4268206107,
        "longitude":-83.2065059464
     },
     {
        "parcelno":"22052197-9",
        "propaddr":"18411 WINTHROP",
        "latitude":42.4251804324,
        "longitude":-83.2014533651
     },
     {
        "parcelno":"22015293-4",
        "propaddr":"15612 CURTIS",
        "latitude":42.4233887771,
        "longitude":-83.2013775623
     },
     {
        "parcelno":"22050632-4",
        "propaddr":"18485 GREENFIELD",
        "latitude":42.4261840999,
        "longitude":-83.2000765467
     },
     {
        "parcelno":"08002840.",
        "propaddr":"1667 EDISON",
        "latitude":42.3784942169,
        "longitude":-83.0987885798
     },
     {
        "parcelno":"06002726.",
        "propaddr":"1219 CALVERT",
        "latitude":42.3850856642,
        "longitude":-83.0971495408
     },
     {
        "parcelno":"22055162.",
        "propaddr":"19124 PREVOST",
        "latitude":42.4307945809,
        "longitude":-83.2038782104
     },
     {
        "parcelno":"22057501.054",
        "propaddr":"19973 MANSFIELD",
        "latitude":42.439098975,
        "longitude":-83.2069451845
     },
     {
        "parcelno":"22057501.055",
        "propaddr":"19967 MANSFIELD",
        "latitude":42.4389689428,
        "longitude":-83.2069393688
     },
     {
        "parcelno":"22056238.008",
        "propaddr":"20545 RUTHERFORD",
        "latitude":42.4436407774,
        "longitude":-83.2061319597
     },
     {
        "parcelno":"22071486.",
        "propaddr":"19736 ARCHDALE",
        "latitude":42.4360473789,
        "longitude":-83.2171231101
     },
     {
        "parcelno":"22072624.",
        "propaddr":"18493 FENMORE",
        "latitude":42.4261800106,
        "longitude":-83.2183419998
     },
     {
        "parcelno":"22069586.",
        "propaddr":"18945 OAKFIELD",
        "latitude":42.4290158705,
        "longitude":-83.2152894973
     },
     {
        "parcelno":"22072312.003",
        "propaddr":"18112 FENMORE",
        "latitude":42.4226199859,
        "longitude":-83.2176673987
     },
     {
        "parcelno":"22071718.",
        "propaddr":"18089 ARCHDALE",
        "latitude":42.4223167491,
        "longitude":-83.2172367444
     },
     {
        "parcelno":"22013839.",
        "propaddr":"17624 W MCNICHOLS",
        "latitude":42.4158591536,
        "longitude":-83.2164724036
     },
     {
        "parcelno":"22125119-38",
        "propaddr":"7803 W OUTER DRIVE",
        "latitude":42.4189057906,
        "longitude":-83.2144419441
     },
     {
        "parcelno":"22064009.",
        "propaddr":"17126 BILTMORE",
        "latitude":42.4162171283,
        "longitude":-83.2107210496
     },
     {
        "parcelno":"22061840.",
        "propaddr":"17545 ASBURY PARK",
        "latitude":42.4201961547,
        "longitude":-83.2094896834
     },
     {
        "parcelno":"22073440-8",
        "propaddr":"16776 SOUTHFIELD",
        "latitude":42.4135058573,
        "longitude":-83.2180613391
     },
     {
        "parcelno":"22071277.",
        "propaddr":"15736 ARCHDALE",
        "latitude":42.4056250651,
        "longitude":-83.2158513127
     },
     {
        "parcelno":"22068805.",
        "propaddr":"14530 RUTLAND",
        "latitude":42.3945007023,
        "longitude":-83.2132063943
     },
     {
        "parcelno":"22066290.",
        "propaddr":"14707 ABINGTON AVE",
        "latitude":42.3972082755,
        "longitude":-83.2116524853
     },
     {
        "parcelno":"22064912.",
        "propaddr":"14683 GRANDMONT",
        "latitude":42.3968924602,
        "longitude":-83.2103697377
     },
     {
        "parcelno":"22062743.",
        "propaddr":"14554 WOODMONT",
        "latitude":42.3949126466,
        "longitude":-83.2093077613
     },
     {
        "parcelno":"22070480.",
        "propaddr":"14300 LONGACRE",
        "latitude":42.391703563,
        "longitude":-83.2144111032
     },
     {
        "parcelno":"22068859.",
        "propaddr":"14305 RUTLAND",
        "latitude":42.3917184491,
        "longitude":-83.2138555234
     },
     {
        "parcelno":"22068800.",
        "propaddr":"14434 RUTLAND",
        "latitude":42.393514649,
        "longitude":-83.2131540734
     },
     {
        "parcelno":"22062024.",
        "propaddr":"14303 ASBURY PARK",
        "latitude":42.3917984548,
        "longitude":-83.2085701882
     },
     {
        "parcelno":"08002265.",
        "propaddr":"1704 PINGREE",
        "latitude":42.372493421,
        "longitude":-83.0956357115
     },
     {
        "parcelno":"06001948.",
        "propaddr":"1503 W PHILADELPHIA",
        "latitude":42.3725997008,
        "longitude":-83.0919342057
     },
     {
        "parcelno":"22072213.",
        "propaddr":"6539 ARCHDALE",
        "latitude":42.3395029317,
        "longitude":-83.2148916344
     },
     {
        "parcelno":"22067696.",
        "propaddr":"12752 MEMORIAL",
        "latitude":42.3819803782,
        "longitude":-83.2120498987
     },
     {
        "parcelno":"22062078.",
        "propaddr":"13503 ASBURY PARK",
        "latitude":42.3847847243,
        "longitude":-83.2080273753
     },
     {
        "parcelno":"22070845.",
        "propaddr":"6829 LONGACRE",
        "latitude":42.3416429199,
        "longitude":-83.2137395209
     },
     {
        "parcelno":"22070846.",
        "propaddr":"6821 LONGACRE",
        "latitude":42.3415470576,
        "longitude":-83.2137360102
     },
     {
        "parcelno":"22066165.",
        "propaddr":"11628 ABINGTON AVE",
        "latitude":42.3728918652,
        "longitude":-83.210503903
     },
     {
        "parcelno":"22062931.",
        "propaddr":"12153 WOODMONT",
        "latitude":42.3767491756,
        "longitude":-83.208904921
     },
     {
        "parcelno":"22069023.",
        "propaddr":"9531 RUTLAND",
        "latitude":42.365606869,
        "longitude":-83.2133933359
     },
     {
        "parcelno":"22068638.",
        "propaddr":"9638 RUTLAND",
        "latitude":42.3671549035,
        "longitude":-83.2127508452
     },
     {
        "parcelno":"22066164.",
        "propaddr":"11428 ABINGTON AVE",
        "latitude":42.371846804,
        "longitude":-83.2104403055
     },
     {
        "parcelno":"22072738-9",
        "propaddr":"6456 SOUTHFIELD",
        "latitude":42.3383308547,
        "longitude":-83.2153914308
     },
     {
        "parcelno":"22062242.",
        "propaddr":"8941 ASBURY PARK",
        "latitude":42.3600580532,
        "longitude":-83.2071583717
     },
     {
        "parcelno":"22062243.",
        "propaddr":"8937 ASBURY PARK",
        "latitude":42.3599619437,
        "longitude":-83.2071559163
     },
     {
        "parcelno":"22072745.",
        "propaddr":"6506 SOUTHFIELD",
        "latitude":42.3390590978,
        "longitude":-83.2154156346
     },
     {
        "parcelno":"22067460.",
        "propaddr":"7350 MEMORIAL",
        "latitude":42.34573663,
        "longitude":-83.2101816134
     },
     {
        "parcelno":"22066620.",
        "propaddr":"7403 ABINGTON AVE",
        "latitude":42.3459740138,
        "longitude":-83.20968578
     },
     {
        "parcelno":"22084077.",
        "propaddr":"6197 STAHELIN",
        "latitude":42.3345464948,
        "longitude":-83.2243295334
     },
     {
        "parcelno":"22080719.",
        "propaddr":"6827 GREENVIEW",
        "latitude":42.341506434,
        "longitude":-83.2222510719
     },
     {
        "parcelno":"08001983.",
        "propaddr":"1717 VIRGINIA PARK",
        "latitude":42.3697210921,
        "longitude":-83.0939613396
     },
     {
        "parcelno":"22001053.",
        "propaddr":"18700 SAWYER",
        "latitude":42.3471606348,
        "longitude":-83.2234430813
     },
     {
        "parcelno":"22080705-6",
        "propaddr":"7235 GREENVIEW",
        "latitude":42.3438702782,
        "longitude":-83.2223183441
     },
     {
        "parcelno":"22079382.",
        "propaddr":"7229 FAUST",
        "latitude":42.3438341573,
        "longitude":-83.2211527683
     },
     {
        "parcelno":"06001706.",
        "propaddr":"1126 DELAWARE",
        "latitude":42.3708800727,
        "longitude":-83.0858005579
     },
     {
        "parcelno":"22083946.003L",
        "propaddr":"8003 STAHELIN",
        "latitude":42.3506662249,
        "longitude":-83.2250011536
     },
     {
        "parcelno":"22079693.",
        "propaddr":"8600 GREENVIEW",
        "latitude":42.3560519885,
        "longitude":-83.2221206648
     },
     {
        "parcelno":"22079293.",
        "propaddr":"8401 FAUST",
        "latitude":42.3542702059,
        "longitude":-83.2215337321
     },
     {
        "parcelno":"22081151.",
        "propaddr":"8825 BRACE",
        "latitude":42.3582525867,
        "longitude":-83.2240563666
     },
     {
        "parcelno":"22078061.",
        "propaddr":"9301 PENROD",
        "latitude":42.3633032882,
        "longitude":-83.2206230539
     },
     {
        "parcelno":"22003775-87",
        "propaddr":"18331 CHICAGO",
        "latitude":42.3647453311,
        "longitude":-83.21969325
     },
     {
        "parcelno":"22077204.",
        "propaddr":"8907 ROSEMONT",
        "latitude":42.3594279915,
        "longitude":-83.2192839914
     },
     {
        "parcelno":"22083806.",
        "propaddr":"9991 STAHELIN",
        "latitude":42.3686452223,
        "longitude":-83.2255826096
     },
     {
        "parcelno":"22074855-66",
        "propaddr":"9312 ASHTON",
        "latitude":42.3635069639,
        "longitude":-83.2175960112
     },
     {
        "parcelno":"22074834.",
        "propaddr":"9020 ASHTON",
        "latitude":42.3599738974,
        "longitude":-83.2174159206
     },
     {
        "parcelno":"22074833.",
        "propaddr":"9010 ASHTON",
        "latitude":42.3598504399,
        "longitude":-83.2174129067
     },
     {
        "parcelno":"22068321.",
        "propaddr":"18415 WEAVER",
        "latitude":42.3692219779,
        "longitude":-83.221716484
     },
     {
        "parcelno":"22074875.",
        "propaddr":"9958 ASHTON",
        "latitude":42.3683641476,
        "longitude":-83.2176227192
     },
     {
        "parcelno":"22084553.",
        "propaddr":"13604 ARTESIAN",
        "latitude":42.3856829397,
        "longitude":-83.2267635341
     },
     {
        "parcelno":"22075746-65",
        "propaddr":"11629 ASHTON",
        "latitude":42.3727514973,
        "longitude":-83.2184062126
     },
     {
        "parcelno":"22080381.",
        "propaddr":"15003 GREENVIEW",
        "latitude":42.3986142959,
        "longitude":-83.2243287518
     },
     {
        "parcelno":"22077826.",
        "propaddr":"14826 PENROD",
        "latitude":42.3965814226,
        "longitude":-83.2211417863
     },
     {
        "parcelno":"22077019.",
        "propaddr":"14821 ROSEMONT",
        "latitude":42.3964830463,
        "longitude":-83.2206925014
     },
     {
        "parcelno":"22008891-2",
        "propaddr":"18929 SCHOOLCRAFT",
        "latitude":42.3861985865,
        "longitude":-83.2266751909
     },
     {
        "parcelno":"22008839-44",
        "propaddr":"18241 SCHOOLCRAFT",
        "latitude":42.3864037991,
        "longitude":-83.2195190884
     },
     {
        "parcelno":"22083064.",
        "propaddr":"14310 STAHELIN",
        "latitude":42.3915647603,
        "longitude":-83.2257680888
     },
     {
        "parcelno":"22082580.",
        "propaddr":"14301 GLASTONBURY",
        "latitude":42.3914510648,
        "longitude":-83.2252942262
     },
     {
        "parcelno":"22082600.",
        "propaddr":"14103 GLASTONBURY",
        "latitude":42.3890638502,
        "longitude":-83.2252116292
     },
     {
        "parcelno":"22082612.",
        "propaddr":"13967 GLASTONBURY",
        "latitude":42.3875635922,
        "longitude":-83.2244223124
     },
     {
        "parcelno":"22078643-4",
        "propaddr":"13912 FAUST",
        "latitude":42.3868659183,
        "longitude":-83.2218928795
     },
     {
        "parcelno":"22076509.",
        "propaddr":"16500 ROSEMONT",
        "latitude":42.4102226401,
        "longitude":-83.2208127829
     },
     {
        "parcelno":"22074984.",
        "propaddr":"14120 ASHTON",
        "latitude":42.3894068351,
        "longitude":-83.2183930634
     },
     {
        "parcelno":"22084658.",
        "propaddr":"15300 ARTESIAN",
        "latitude":42.4010338617,
        "longitude":-83.2272729593
     },
     {
        "parcelno":"22011784.",
        "propaddr":"18817 BRETTON DR",
        "latitude":42.4063893156,
        "longitude":-83.2258690181
     },
     {
        "parcelno":"22012081.",
        "propaddr":"18641 PURITAN",
        "latitude":42.4079276301,
        "longitude":-83.2247668952
     },
     {
        "parcelno":"22011578.",
        "propaddr":"18495 LANCASHIRE",
        "latitude":42.4032962457,
        "longitude":-83.2228714641
     },
     {
        "parcelno":"22008138.",
        "propaddr":"18420 W GRAND RIVER",
        "latitude":42.4024935636,
        "longitude":-83.2219164986
     },
     {
        "parcelno":"22083159.",
        "propaddr":"16700 STAHELIN",
        "latitude":42.4119108041,
        "longitude":-83.2261406096
     },
     {
        "parcelno":"22079945.",
        "propaddr":"16714 GREENVIEW",
        "latitude":42.412185201,
        "longitude":-83.2237603652
     },
     {
        "parcelno":"06006051.002",
        "propaddr":"5766 TRUMBULL 13/113",
        "latitude":42.3590484827,
        "longitude":-83.0820160356
     },